property_type,price,area,n_bedrooms,n_bathrooms,n_floors,legal,interior,front_road_width,latitude,longitude,address,district,city_province
Căn hộ chung cư,7.7,75.0,2,,3,Sổ đỏ/ Sổ hồng,Đầy đủ,,10.8024409479185,106.741949677425,"Dự án Masteri Thảo Điền, Đường Xa Lộ Hà Nội, Phường Thảo Điền, Quận 2, Hồ Chí Minh",Quận 2,Hồ Chí Minh
Nhà riêng,15.8,72.0,6,6,6,Sổ đỏ/ Sổ hồng,Đầy đủ,6.1,21.0388321765065,105.934539129008,"Phúc Lợi, Phúc Lợi, Long Biên, Hà Nội",Long Biên,Hà Nội
Nhà riêng,7.5,102.3,2,1,2,Sổ đỏ/ Sổ hồng,Đầy đủ,5.0,11.9738934221653,108.484595388158,"Phường 12, Đà Lạt, Lâm Đồng",Đà Lạt,Lâm Đồng
Nhà riêng,6.6,60.9,2,2,1,Sổ đỏ/ Sổ hồng,Cơ bản,4.35,10.8496541233261,106.65122176577,"Đường Phạm Văn Chiêu, Phường 9, Gò Vấp, Hồ Chí Minh",Gò Vấp,Hồ Chí Minh
Nhà riêng,59.0,148.0,41,41,10,Sổ đỏ/ Sổ hồng,Đầy đủ,6.5,21.0119178408982,105.776274747928,"Đường Đồng Me, Phường Mễ Trì, Nam Từ Liêm, Hà Nội",Nam Từ Liêm,Hà Nội
Nhà riêng,5.2,47.0,2,2,2,Sổ đỏ/ Sổ hồng,Cơ bản,3.5,10.7978706159862,106.710850033015,"Hẻm 66/26K, Đường Xô Viết Nghệ Tĩnh, Phường 21, Bình Thạnh, Hồ Chí Minh",Bình Thạnh,Hồ Chí Minh
Nhà riêng,11.8,50.0,4,4,4,Sổ đỏ/ Sổ hồng,Đầy đủ,,21.0257385141675,105.818376836457,"Phố Ngọc Khánh, Phường Giảng Võ, Ba Đình, Hà Nội",Ba Đình,Hà Nội
Nhà riêng,4.9,63.4,3,3,3,Sổ đỏ/ Sổ hồng,Đầy đủ,5.0,10.9532242843691,106.83859300108,"Đường Nguyễn Văn Hoa, Phường Thống Nhất, Biên Hòa, Đồng Nai",Biên Hòa,Đồng Nai
Nhà riêng,10.5,48.0,4,4,4,Sổ đỏ/ Sổ hồng,Đầy đủ,,10.743099835756,106.725904201891,"Đường Lý Phục Man, Phường Bình Thuận, Quận 7, Hồ Chí Minh",Quận 7,Hồ Chí Minh
Nhà riêng,7.89,30.0,2,3,4,Sổ đỏ/ Sổ hồng,Đầy đủ,4.2,21.0377618509899,105.871949591412,"Đường Bồ Đề, Phường Bồ Đề, Long Biên, Hà Nội",Long Biên,Hà Nội
Nhà riêng,6.5,40.5,4,3,5,Sổ đỏ/ Sổ hồng,Cơ bản,6.0,10.7716902237683,106.586703850689,"Đường Tây Lân, Phường Bình Hưng Hòa A, Bình Tân, Hồ Chí Minh",Bình Tân,Hồ Chí Minh
Nhà riêng,17.9,90.0,4,5,4,Sổ đỏ/ Sổ hồng,Đầy đủ,5.0,10.702616858751,106.728763834075,"Đường D4, Phường Phú Mỹ, Quận 7, Hồ Chí Minh",Quận 7,Hồ Chí Minh
Nhà riêng,10.4,58.0,9,10,6,Sổ đỏ/ Sổ hồng,Đầy đủ,,10.8120687929607,106.695570496239,"230/38/8 Đường Phan Văn Trị, Phường 12, Bình Thạnh, Hồ Chí Minh",Bình Thạnh,Hồ Chí Minh
Nhà riêng,3.5,100.0,2,2,1,Sổ đỏ/ Sổ hồng,Không nội thất,5.0,10.9772251577164,106.491281574874,"Đường Nguyễn Văn Khạ, Thị trấn Củ Chi, Củ Chi, Hồ Chí Minh",Củ Chi,Hồ Chí Minh
Nhà riêng,8.6,50.8,5,5,4,Sổ đỏ/ Sổ hồng,Đầy đủ,4.55,10.8330970219701,106.672756970815,"Đường Phan Văn Trị, Phường 10, Gò Vấp, Hồ Chí Minh",Gò Vấp,Hồ Chí Minh
Nhà riêng,11.69,53.0,4,4,6,Sổ đỏ/ Sổ hồng,"Full nội thất sịn, thang máy êm",,21.0352405137248,105.822955009317,"Đường Đội Cấn, Phường Ngọc Hà, Ba Đình, Hà Nội",Ba Đình,Hà Nội
Nhà riêng,16.5,97.0,2,2,2,Sổ đỏ/ Sổ hồng,,,10.7951129989278,106.662053544577,"Đường Nguyễn Bặc, Phường 3, Tân Bình, Hồ Chí Minh",Tân Bình,Hồ Chí Minh
Nhà riêng,10.8,204.4,2,2,2,Sổ đỏ/ Sổ hồng,Đầy đủ,12.0,10.7984600686491,106.612434282849,"Đường Hương Lộ 3, Phường Bình Hưng Hòa, Bình Tân, Hồ Chí Minh",Bình Tân,Hồ Chí Minh
Nhà riêng,6.95,53.4,4,4,4,Sổ đỏ/ Sổ hồng,Đầy đủ,4.0,10.8708533089449,106.685473045173,"Đường Thạnh Lộc 19, Phường An Phú Đông, Quận 12, Hồ Chí Minh",Quận 12,Hồ Chí Minh
Nhà riêng,41.8,90.0,18,19,8,Sổ đỏ/ Sổ hồng,,5.0,21.0143889380353,105.810674102728,"Phố Vũ Ngọc Phan, Phường Láng Hạ, Đống Đa, Hà Nội",Đống Đa,Hà Nội
Nhà riêng,36.0,70.0,21,22,9,Sổ đỏ/ Sổ hồng,Đầy đủ,7.0,21.014747663492,105.81774191565,"Phố Thái Hà, Phường Láng Hạ, Đống Đa, Hà Nội",Đống Đa,Hà Nội
Biệt thự,17.3,120.0,6,4,5,Hợp đồng mua bán,Không nội thất,8.0,20.941492209599193,105.95631277238182,"Dự án Vinhomes Ocean Park 3, Đường Phố Biển, Xã Nghĩa Trụ, Văn Giang, Hưng Yên",Văn Giang,Hưng Yên
Biệt thự,28.0,384.0,,,3,Sổ đỏ/ Sổ hồng,Không nội thất,16.0,10.8667745685491,106.816714865984,"Dự án Thảo Nguyên Sài Gòn, Đường D6, Phường Long Thạnh Mỹ, Quận 9, Hồ Chí Minh",Quận 9,Hồ Chí Minh
Biệt thự,10.0,87.0,4,5,3,Hợp đồng mua bán,Đầy đủ,,10.3959687440857,107.148755936921,"Dự án La Vida Residences, Đường 3/2, Phường 12, Vũng Tàu, Bà Rịa Vũng Tàu",Vũng Tàu,Bà Rịa Vũng Tàu
Biệt thự,36.0,222.5,6,6,4,Sổ đỏ/ Sổ hồng,Không nội thất,10.0,20.95999305636312,105.73599357313644,"Dự án Sol Lake Villa, Phường Yên Nghĩa, Hà Đông, Hà Nội",Hà Đông,Hà Nội
Biệt thự,6.25,78.0,4,,4,Hợp đồng mua bán,,5.0,10.3952767635214,107.147610144103,"La Vida Residences, Đường 3/2, Phường 12, Thành phố Vũng Tàu, Bà Rịa Vũng Tàu",Vũng Tàu,Bà Rịa Vũng Tàu
Biệt thự,22.0,273.0,4,5,3,Hợp đồng mua bán,Không nội thất,15.0,10.3957453565289,107.148089911336,"Dự án La Vida Residences, Đường 3/2, Phường 12, Vũng Tàu, Bà Rịa Vũng Tàu",Vũng Tàu,Bà Rịa Vũng Tàu
Biệt thự,8.85,103.6,,,4,Sổ đỏ/ Sổ hồng,Không nội thất,,10.3962915791956,107.147624089501,"La Vida Residences, Đường 3/2, Phường 12, Vũng Tàu, Bà Rịa Vũng Tàu",Vũng Tàu,Bà Rịa Vũng Tàu
Biệt thự,4.8,122.2,3,3,2,Sổ đỏ/ Sổ hồng,,,11.9955681538647,109.231970091279,"ParaSol, Phường Cam Nghĩa, Cam Ranh, Khánh Hòa",Cam Ranh,Khánh Hòa
Biệt thự,41.7,278.0,,,4,Sổ đỏ/ Sổ hồng,Không nội thất,11.65,21.0149061647214,105.723914584099,"Dự án Mailand Hanoi City, Đường Đại lộ Thăng Long, Xã Song Phương, Hoài Đức, Hà Nội",Hoài Đức,Hà Nội
Biệt thự,8.8,67.5,,,4,Hợp đồng mua bán,,4.5,20.8733939477895,106.720503084362,"Vinhomes Royal Island, Phường Thủy Hà, Thủy Nguyên, Hải Phòng",Thủy Nguyên,Hải Phòng
Biệt thự,75.0,193.0,6,6,5,Sổ đỏ/ Sổ hồng,Hoàn thiện nội thất,,21.036591842518224,105.76066434225535,"Dự án Vinhomes Gardenia, Đường Hàm Nghi, Phường Cầu Diễn, Nam Từ Liêm, Hà Nội",Nam Từ Liêm,Hà Nội
Biệt thự,22.61,323.0,4,4,3,Hợp đồng mua bán,Không nội thất,6.6,21.3534335008836,105.746237623349,"Dự án Thanh Xuân Valley, Xã Ngọc Thanh, Phúc Yên, Vĩnh Phúc",Phúc Yên,Vĩnh Phúc
Biệt thự,21.86,132.4,4,5,4,Sổ đỏ/ Sổ hồng,Không nội thất,6.0,10.8055360006556,106.789521624102,"Dự án Verosa Park, Đường Số 5, Phường Phú Hữu, Quận 9, Hồ Chí Minh",Quận 9,Hồ Chí Minh
Biệt thự,53.658,325.2,5,5,4,Sổ đỏ/ Sổ hồng,Không nội thất,12.5,21.015054968063545,105.72485524240884,"Dự án Mailand Hanoi City, Đường Đại lộ Thăng Long, Xã An Khánh, Hoài Đức, Hà Nội",Hoài Đức,Hà Nội
Biệt thự,18.8,323.0,5,5,3,Hợp đồng mua bán,Cơ bản,12.0,21.3539862017304,105.747115540418,"Dự án Thanh Xuân Valley, Xã Ngọc Thanh, Phúc Yên, Vĩnh Phúc",Phúc Yên,Vĩnh Phúc
Biệt thự,34.2,171.0,,,4,Sổ đỏ/ Sổ hồng,Đầy đủ,9.0,10.8448984491717,106.717757248469,"Dự án KĐT Vạn Phúc City, Phường Hiệp Bình Phước, Thủ Đức, Hồ Chí Minh",Thủ Đức,Hồ Chí Minh
Biệt thự,19.0,66.0,,,3,Sổ đỏ/ Sổ hồng,Không nội thất,5.5,21.0024565161958,105.964091237262,"Dự án Vinhomes Ocean Park Gia Lâm, Đường Ngọc Trai 8, Xã Đa Tốn, Gia Lâm, Hà Nội",Gia Lâm,Hà Nội
Biệt thự,30.0,170.0,,,4,HĐMB,,,20.97662806873877,105.7616358421211,"Dự án Solasta Mansion, Đường Tố Hữu, Phường Dương Nội, Hà Đông, Hà Nội",Hà Đông,Hà Nội
Biệt thự,13.5,170.0,4,4,3,Hợp đồng mua bán,Không nội thất,10.0,10.39564341125,107.148145211976,"La Vida Residences, Đường 3/2, Phường 12, Vũng Tàu, Bà Rịa Vũng Tàu",Vũng Tàu,Bà Rịa Vũng Tàu
Biệt thự,36.0,415.3,6,6,3,Sổ đỏ/ Sổ hồng,"+ Nội thất đầy đủ: Điều hòa, tủ lạnh, giường, máy rửa chén, robot hút bụi",13.24,10.8669772607584,106.817428279808,"Thảo Nguyên Sài Gòn, 32, Đường D1, Phường Long Thạnh Mỹ, Quận 9, Hồ Chí Minh",Quận 9,Hồ Chí Minh
Nhà mặt phố,9.0,88.0,6,4,2,Sổ đỏ/ Sổ hồng,Cơ bản,4.0,10.7533506512279,106.588653676734,"Đường Trần Thanh Mại, Phường Tân Tạo, Bình Tân, Hồ Chí Minh",Bình Tân,Hồ Chí Minh
Nhà mặt phố,16.8,83.5,,,2,Sổ đỏ/ Sổ hồng,,,20.95614446966,105.76603874316,"Đường Quang Trung, Phường Phú La, Hà Đông, Hà Nội",Hà Đông,Hà Nội
Nhà mặt phố,35.0,280.0,11,10,4,Sổ đỏ/ Sổ hồng,Cơ bản,6.0,10.7380197616114,106.628435851092,"Đường Lý Chiêu Hoàng, Phường 10, Quận 6, Hồ Chí Minh",Quận 6,Hồ Chí Minh
Nhà mặt phố,164.0,173.7,,,4,Sổ hồng/ sổ đỏ sẵn sang tên ngay,,8.0,21.032767866038,105.791872437926,"Phố Khúc Thừa Dụ, Phường Dịch Vọng, Cầu Giấy, Hà Nội",Cầu Giấy,Hà Nội
Nhà mặt phố,17.9,57.8,,,1,Sổ đỏ/ Sổ hồng,,3.8,10.808504855385,106.688486866643,"271 Đường Hoàng Hoa Thám, Phường 13, Tân Bình, Hồ Chí Minh",Tân Bình,Hồ Chí Minh
Nhà mặt phố,18.0,193.5,,,4,Sổ đỏ,,,15.8862774458876,108.333874556897,"Đường Lý Thái Tổ, Phường Sơn Phong, Hội An, Quảng Nam",Hội An,Quảng Nam
Nhà mặt phố,14.0,95.0,7,9,6,Sổ đỏ/ Sổ hồng,,4.27,10.7888756981783,106.624939298962,"Số 82, Đường Đàm Thận Huy, Phường Tân Quý, Tân Phú, Hồ Chí Minh",Tân Phú,Hồ Chí Minh
Nhà mặt phố,15.6,90.0,2,2,2,Sổ đỏ/ Sổ hồng,,4.0,10.8120429095969,106.692494876001,"Đường Nguyễn Văn Đậu, Phường 11, Bình Thạnh, Hồ Chí Minh",Bình Thạnh,Hồ Chí Minh
Nhà mặt phố,4.0,800.0,,,4,Sổ đỏ/ Sổ hồng,,16.0,11.9963855303966,107.512430817089,"Đường Quốc lộ 14C, Xã Quảng Trực, Tuy Đức, Đắk Nông",Tuy Đức,Đắk Nông
Nhà mặt phố,19.9,159.0,5,4,5,Sổ đỏ/ Sổ hồng,"Nội thất full: Giường, tủ, bàn ghế, sofa, máy lạnh",10.0,10.772088223851,106.767244243557,"Dự án Khu đô thị Cát Lái, Đường Đồng Văn Cống, Phường Cát Lái, Quận 2, Hồ Chí Minh",Quận 2,Hồ Chí Minh
Nhà mặt phố,23.5,65.8,,,1,Sổ đỏ/ Sổ hồng,,5.34,20.9959267707574,105.874008082755,"248, Đường Dương Văn Bé, Phường Vĩnh Tuy, Hai Bà Trưng, Hà Nội",Hai Bà Trưng,Hà Nội
Nhà mặt phố,7.55,44.5,2,1,1,Sổ đỏ/ Sổ hồng,Cơ bản,3.5,10.8234162094596,106.682036102599,"Đường Phạm Ngũ Lão, Phường 1, Gò Vấp, Hồ Chí Minh",Gò Vấp,Hồ Chí Minh
Nhà mặt phố,20.5,200.0,3,3,3,Sổ đỏ/ Sổ hồng,Không nội thất,10.0,16.0210856166281,108.215548579288,"Đường Trần Huấn, Phường Khuê Trung, Cẩm Lệ, Đà Nẵng",Cẩm Lệ,Đà Nẵng
Nhà mặt phố,48.8,327.0,,,3,Sổ đỏ/ Sổ hồng,Cơ bản,8.0,16.0655738050561,108.199226640761,"Đường Điện Biên Phủ, Phường Chính Gián, Thanh Khê, Đà Nẵng",Thanh Khê,Đà Nẵng
Nhà mặt phố,53.0,68.0,10,6,7,Sổ đỏ/ Sổ hồng,Cơ bản,16.0,10.7673966043754,106.69746837096,"Đường Yersin, Phường Cầu Ông Lãnh, Quận 1, Hồ Chí Minh",Quận 1,Hồ Chí Minh
Nhà mặt phố,16.0,492.0,4,2,4,Sổ đỏ/ Sổ hồng,Không nội thất,9.5,10.6557866188454,106.940718143743,"Đường Hùng Vương, Xã Phước An, Nhơn Trạch, Đồng Nai",Nhơn Trạch,Đồng Nai
Nhà mặt phố,19.9,119.0,7,8,3,Sổ đỏ/ Sổ hồng,Đầy đủ,,10.8326115709923,106.683998787897,"Đường Số 4, Phường 7, Gò Vấp, Hồ Chí Minh",Gò Vấp,Hồ Chí Minh
Nhà mặt phố,8.5,74.0,4,5,3,Sổ đỏ/ Sổ hồng,Đầy đủ,4.5,10.6971183610265,106.740634308607,"Đường Huỳnh Thị Đồng, Thị trấn Nhà Bè, Nhà Bè, Hồ Chí Minh",Nhà Bè,Hồ Chí Minh
Nhà mặt phố,20.0,58.0,5,5,5,Sổ đỏ/ Sổ hồng,Cơ bản,,10.7894217762811,106.691620963152,"Đường Đinh Công Tráng, Phường Tân Định, Quận 1, Hồ Chí Minh",Quận 1,Hồ Chí Minh
Nhà mặt phố,22.8,105.0,4,5,3,Sổ đỏ/ Sổ hồng,Đầy đủ,,10.8062511942525,106.750750273432,"16 Đường Số 16, Phường An Phú, Quận 2, Hồ Chí Minh",Quận 2,Hồ Chí Minh
Căn hộ chung cư,7.5,181.0,2,2,3,Đang chờ sổ,Không nội thất,,10.7357123218165,106.740179487245,"Dự án Jamona City, Đường Đào Trí, Phường Phú Thuận, Quận 7, Hồ Chí Minh",Quận 7,Hồ Chí Minh
Căn hộ chung cư,6.95,75.0,2,2,3,Sổ đỏ/ Sổ hồng,Đầy đủ,,20.9945778551689,105.789391540662,"Ecolife Capitol, Tố Hữu, Trung Văn, Nam Từ Liêm, Hà Nội",Nam Từ Liêm,Hà Nội
Căn hộ chung cư,2.1,60.0,2,2,3,Sổ đỏ/ Sổ hồng,,,10.890916699092331,106.78508127219928,"Dự án Phúc Đạt Tower, 160 Đường Quốc lộ 1K, Phường Đông Hòa, Dĩ An, Bình Dương",Dĩ An,Bình Dương
Căn hộ chung cư,3.88,82.0,3,2,3,Sổ đỏ/ Sổ hồng,Cơ bản,,10.7672627797203,106.612905566667,"Hoàng Kim Thế Gia (The Golden Dynasty), Trương Phước Phan, Bình Trị Đông, Bình Tân, Hồ Chí Minh",Bình Tân,Hồ Chí Minh
Căn hộ chung cư,7.9,103.0,3,3,3,Sổ đỏ/ Sổ hồng,Đầy đủ,,20.9760161942439,105.761679104069,"Dự án The Pride, Đường Tố Hữu, Phường La Khê, Hà Đông, Hà Nội",Hà Đông,Hà Nội
Căn hộ chung cư,4.7,54.0,2,2,3,Sổ hồng,,,21.0064846643017,105.736335420012,"The Sapphire-Vinhomes Smart City, Tây Mỗ, Nam Từ Liêm, Hà Nội",Nam Từ Liêm,Hà Nội
Căn hộ chung cư,8.5,108.0,3,2,3,Sổ đỏ/ Sổ hồng,Đầy đủ,,21.034513939497696,105.76367071485647,"Dự án Mỹ Đình I, Đường Trần Hữu Dực, Phường Cầu Diễn, Nam Từ Liêm, Hà Nội",Nam Từ Liêm,Hà Nội
Căn hộ chung cư,7.5,83.2,3,2,3,Sổ đỏ/ Sổ hồng ( sử dụng chung),Đầy đủ,,20.959400912206075,105.79184462549654,"Dự án The K Park, Đường Lê Trọng Tấn, Phường Phú La, Hà Đông, Hà Nội",Hà Đông,Hà Nội
Căn hộ chung cư,5.9,99.0,3,3,3,Sổ hồng,Cơ bản,,10.757698837175706,106.69254179446654,"Dự án Orient Apartment, Đường Bến Vân Đồn, Phường 1, Quận 4, Hồ Chí Minh",Quận 4,Hồ Chí Minh
Căn hộ chung cư,3.72,55.0,2,1,3,Sổ đỏ/ Sổ hồng,Đầy đủ,,20.9903914119972,105.940413123295,"Dự án The Sapphire 2 - Vinhomes Ocean Park, Xã Đa Tốn, Gia Lâm, Hà Nội",Gia Lâm,Hà Nội
Căn hộ chung cư,3.75,73.0,2,2,3,Sổ đỏ/ Sổ hồng ( sử dụng chung),Đầy đủ,,10.8007107821868,106.821817856633,"Dự án MT Eastmark City, Phường Long Trường, Quận 9, Hồ Chí Minh",Quận 9,Hồ Chí Minh
Căn hộ chung cư,10.5,104.7,3,2,3,Sổ đỏ/ Sổ hồng,Đầy đủ,,21.08426435649132,105.7910729450021,"Dự án Sunshine City, Đường Phạm Văn Đồng, Phường Đông Ngạc, Bắc Từ Liêm, Hà Nội",Bắc Từ Liêm,Hà Nội
Căn hộ chung cư,3.7,81.0,3,2,3,Sổ đỏ/ Sổ hồng,Cơ bản,,10.8435620583104,106.842995575832,"Dự án The Origami, Đường Phước Thiện, Phường Long Bình, Quận 9, Hồ Chí Minh",Quận 9,Hồ Chí Minh
Căn hộ chung cư,3.99,49.0,1,1,3,Sổ đỏ/ Sổ hồng,Nội thất đã trang bị đầy đủ,,21.001970603505523,105.9424611764818,"Dự án The Zenpark, Đường Đông Dư, Thị trấn Trâu Quỳ, Gia Lâm, Hà Nội",Gia Lâm,Hà Nội
Căn hộ chung cư,2.15,55.0,2,2,3,Hợp đồng mua bán,Cơ bản,,10.7093601717892,106.642264367857,"Sài Gòn Intela, Đường Nguyễn Văn Linh, Xã Phong Phú, Bình Chánh, Hồ Chí Minh",Bình Chánh,Hồ Chí Minh
Căn hộ chung cư,5.5,62.8,2,2,3,Sổ đỏ/ Sổ hồng,Đầy đủ,,21.0062486608424,105.736884051439,"Dự án The Sapphire-Vinhomes Smart City, Phường Tây Mỗ, Nam Từ Liêm, Hà Nội",Nam Từ Liêm,Hà Nội
Căn hộ chung cư,8.6,70.0,2,2,3,Sổ đỏ/ Sổ hồng,Đầy đủ,,21.0057373290035,105.794345930199,"Dự án Vinhomes D'Capitale, Đường Trần Duy Hưng, Phường Trung Hòa, Cầu Giấy, Hà Nội",Cầu Giấy,Hà Nội
Căn hộ chung cư,22.0,143.0,3,3,3,Sổ đỏ/ Sổ hồng,Đầy đủ,,10.7536518288404,106.67835654689,"Dự án Kiều by KITA, Đường Trần Hưng Đạo, Phường 1, Quận 5, Hồ Chí Minh",Quận 5,Hồ Chí Minh
Căn hộ chung cư,8.2,95.0,3,2,3,HĐMB,Đầy đủ,,10.7506174958708,106.723490821411,"Dự án Eco Green Sài Gòn, Đường Nguyễn Văn Linh, Phường Tân Thuận Tây, Quận 7, Hồ Chí Minh",Quận 7,Hồ Chí Minh
Căn hộ chung cư,3.5,67.0,2,2,3,Hợp đồng mua bán,Cơ bản,,10.7175155156102,106.742067543186,"Dự án Q7 Saigon Riverside, Đường Đào Trí, Phường Phú Thuận, Quận 7, Hồ Chí Minh",Quận 7,Hồ Chí Minh
Nhà riêng,9.1,63.0,4,5,4,Sổ đỏ/ Sổ hồng,Đầy đủ,4.0,10.7430328030964,106.725582355903,"Hẻm 21, Đường Lý Phục Man, Phường Bình Thuận, Quận 7, Hồ Chí Minh",Quận 7,Hồ Chí Minh
Nhà riêng,15.8,45.0,3,3,7,Sổ đỏ/ Sổ hồng,Đầy đủ,4.8,21.0297012712805,105.774763944957,"Đường Mỹ Đình 1, Phường Mỹ Đình 1, Nam Từ Liêm, Hà Nội",Nam Từ Liêm,Hà Nội
Nhà riêng,25.8,100.0,4,5,7,Sổ đỏ/ Sổ hồng,Đầy đủ,4.5,21.0656812655809,105.898448624312,"Đường Ngô Gia Tự, Phường Đức Giang, Long Biên, Hà Nội",Long Biên,Hà Nội
Nhà riêng,5.39,64.0,3,4,2,Sổ đỏ/ Sổ hồng,Cơ bản,4.0,10.8424760150675,106.630405540173,"Đường Nguyễn Văn Quá, Phường Đông Hưng Thuận, Quận 12, Hồ Chí Minh",Quận 12,Hồ Chí Minh
Nhà riêng,6.5,45.06,3,3,2,Sổ đỏ/ Sổ hồng,Đầy đủ,6.57,10.756238237084,106.723002252785,"Đường Trần Văn Khánh, Phường Tân Thuận Đông, Quận 7, Hồ Chí Minh",Quận 7,Hồ Chí Minh
Nhà riêng,24.5,124.2,6,6,5,Sổ đỏ/ Sổ hồng,Đầy đủ,,10.8059790133503,106.667884047673,"Đường Phổ Quang, Phường 2, Tân Bình, Hồ Chí Minh",Tân Bình,Hồ Chí Minh
Nhà riêng,14.76,86.5,11,11,6,Sổ đỏ/ Sổ hồng,Đầy đủ,6.0,10.845161768287,106.642394383085,"518 Phạm Văn Chiêu, 8, Gò Vấp, Hồ Chí Minh",Gò Vấp,Hồ Chí Minh
Nhà riêng,3.3,86.2,4,2,3,Sổ đỏ/ Sổ hồng,Đầy đủ,4.0,10.874764362958,106.915827055354,"Đường Hồ Văn Huê, Phường Phước Tân, Biên Hòa, Đồng Nai",Biên Hòa,Đồng Nai
Nhà riêng,21.5,72.0,5,,5,Sổ đỏ/ Sổ hồng,,6.0,20.9592743800033,105.785753846652,"Đường Đa Sỹ, Phường Kiến Hưng, Hà Đông, Hà Nội",Hà Đông,Hà Nội
Nhà riêng,29.5,121.9,28,28,7,Sổ đỏ chính chủ,,7.1,21.045854172458,105.811497007805,"Đường Hoàng Hoa Thám, Phường Vĩnh Phúc, Ba Đình, Hà Nội",Ba Đình,Hà Nội
Nhà riêng,6.79,59.9,4,5,3,Sổ đỏ/ Sổ hồng,"Tặng full nội thất cao cấp, tủ lạnh, máy lạnh, bàn ăn, sopha cao cấp",4.0,10.692492510211,106.740737387325,"Đường Huỳnh Tấn Phát, Thị trấn Nhà Bè, Nhà Bè, Hồ Chí Minh",Nhà Bè,Hồ Chí Minh
Nhà riêng,15.3,35.0,3,,4,Sổ hồng,,3.8,21.0125596614246,105.820101348543,"Ngõ 98, Phố Thái Hà, Phường Trung Liệt, Đống Đa, Hà Nội",Đống Đa,Hà Nội
Nhà riêng,5.9,40.0,2,3,5,Sổ đỏ/ Sổ hồng,Đầy đủ,,10.7550477814405,106.629677434235,"239/7, Đường Bà Hom, Phường 13, Quận 6, Hồ Chí Minh",Quận 6,Hồ Chí Minh
Nhà riêng,5.55,58.9,3,3,3,Sổ đỏ/ Sổ hồng,Full nội thất,3.0,10.6925487664663,106.74055965854,"Hẻm 1716, Đường Huỳnh Tấn Phát, Thị trấn Nhà Bè, Nhà Bè, Hồ Chí Minh",Nhà Bè,Hồ Chí Minh
Nhà riêng,4.85,47.3,3,3,2,Sổ đỏ/ Sổ hồng,"Tặng full nội thất như sofa, bàn trà, kệ tivi, bàn ăn, máy lạnh, giường nệm, tủ quần áo, tab đầu giường, bàn trang điểm.. Vvv",,10.6926445398313,106.740731659288,"Đường Huỳnh Tấn Phát, Thị trấn Nhà Bè, Nhà Bè, Hồ Chí Minh",Nhà Bè,Hồ Chí Minh
Nhà riêng,22.8,101.8,24,25,8,Sổ đỏ/ Sổ hồng,Đầy đủ,,21.0009355676938,105.828903589256,"Đường Trường Chinh, Phường Khương Thượng, Đống Đa, Hà Nội",Đống Đa,Hà Nội
Nhà riêng,14.3,48.0,3,3,4,Sổ đỏ/ Sổ hồng,Đầy đủ,3.5,21.051648919965,105.863768680138,"Đường Ngọc Thụy, Phường Ngọc Thụy, Long Biên, Hà Nội",Long Biên,Hà Nội
Nhà riêng,8.6,82.4,4,5,4,Sổ đỏ/ Sổ hồng,Đầy đủ,6.4,10.6782489195775,106.754720215717,"Dự án Green Riverside, Đường Huỳnh Tấn Phát, Xã Phú Xuân, Nhà Bè, Hồ Chí Minh",Nhà Bè,Hồ Chí Minh
Nhà riêng,7.8,64.0,4,5,4,Sổ đỏ/ Sổ hồng,Đầy đủ,4.0,10.8814984069496,106.680428868259,"Đường Thạnh Lộc 40, Phường Thạnh Lộc, Quận 12, Hồ Chí Minh",Quận 12,Hồ Chí Minh
Nhà riêng,5.35,39.0,4,3,3,Sổ đỏ/ Sổ hồng,Đầy đủ,3.5,10.7214870342616,106.622205742075,"Đường Số 44, Trương Đình Hội Phường 16, Quận 8, Hồ Chí Minh",Quận 8,Hồ Chí Minh
Biệt thự,25.0,120.0,4,3,4,Sổ đỏ/ Sổ hồng,Đầy đủ,6.0,21.005751473262,105.7341268121846,"Dự án Geleximco Lê Trọng Tấn - Hoài Đức, Đường Lê Trọng Tấn, Xã An Khánh, Hoài Đức, Hà Nội",Hoài Đức,Hà Nội
Biệt thự,8.8,55.0,6,5,5,Sổ đỏ/ Sổ hồng,Cơ bản,5.0,20.9433225505697,105.980128417338,"Vinhomes Ocean Park 2, Nghĩa Trụ, Văn Giang, Hưng Yên",Văn Giang,Hưng Yên
Biệt thự,16.8,38.0,7,4,5,Sổ đỏ/ Sổ hồng,Đầy đủ,4.0,20.97871051170432,105.83657282198646,"Dự án KĐTM Đại Kim - Định Công, Đường Nguyễn Cảnh Dị, Phường Đại Kim, Hoàng Mai, Hà Nội",Hoàng Mai,Hà Nội
Biệt thự,75.0,289.8,,,4,Có sổ,Nội thất theo gu riêng,,21.0028693296877,105.964253126504,"Dự án Vinhomes Ocean Park Gia Lâm, Xã Kiêu Kỵ, Gia Lâm, Hà Nội",Gia Lâm,Hà Nội
Biệt thự,30.0,133.5,,,4,Có sổ,,,21.002197681794396,105.96412281533304,"Dự án Vinhomes Ocean Park Gia Lâm, Xã Đa Tốn, Gia Lâm, Hà Nội",Gia Lâm,Hà Nội
Biệt thự,12.99,140.0,,,4,Sổ đỏ/ Sổ hồng,,,21.116490224536,105.977132344199,"Dự án KĐT Mạnh Đức, Đường Lý Thánh Tông, Phường Tân Hồng, Từ Sơn, Bắc Ninh",Từ Sơn,Bắc Ninh
Biệt thự,21.5,64.0,5,5,4,Sổ đỏ/ Sổ hồng,Đầy đủ,5.65,20.9732844198446,105.819850369805,"Dự án KĐT Đại Kim, Đường Kim Giang, Phường Đại Kim, Hoàng Mai, Hà Nội",Hoàng Mai,Hà Nội
Biệt thự,17.3,120.0,6,4,5,Hợp đồng mua bán,Không nội thất,8.0,20.941492209599193,105.95631277238182,"Dự án Vinhomes Ocean Park 3, Đường Phố Biển, Xã Nghĩa Trụ, Văn Giang, Hưng Yên",Văn Giang,Hưng Yên
Biệt thự,19.0,67.5,4,5,5,Sổ đỏ/ Sổ hồng,Đầy đủ,5.0,21.0027175457169,105.963343356177,"Vinhomes Ocean Park Gia Lâm, Dương Xá, Gia Lâm, Hà Nội",Gia Lâm,Hà Nội
Biệt thự,26.5,149.4,,,4,Sổ đỏ/ Sổ hồng,Không nội thất,8.3,21.0028228974249,105.96407712811,"Dự án Vinhomes Ocean Park Gia Lâm, Đường Hải Âu 3, Xã Kiêu Kỵ, Gia Lâm, Hà Nội",Gia Lâm,Hà Nội
Biệt thự,37.5,189.0,,,4,,Xây thô hoàn thiện mặt ngoài,,20.982869105197523,105.75584235171588,"Dự án An Vượng Villa, Đường Tố Hữu, Phường Dương Nội, Hà Đông, Hà Nội",Hà Đông,Hà Nội
Biệt thự,55.0,237.7,5,4,4,Sổ đỏ/ Sổ hồng,,12.0,20.973766514066465,105.75809297430578,"Dự án An Hưng, Đường Tố Hữu, Phường Dương Nội, Hà Đông, Hà Nội",Hà Đông,Hà Nội
Biệt thự,26.5,94.8,,,5,Sổ đỏ/ Sổ hồng,Cơ bản,7.5,21.001918833577573,105.96477184396772,"Dự án Vinhomes Ocean Park Gia Lâm, Xã Đa Tốn, Gia Lâm, Hà Nội",Gia Lâm,Hà Nội
Biệt thự,34.5,192.5,,,4,Sổ đỏ/ Sổ hồng,,10.5,21.00867389041978,105.9379544158302,"Dự án Eurowindow Twin Parks, Thị trấn Trâu Quỳ, Gia Lâm, Hà Nội",Gia Lâm,Hà Nội
Biệt thự,5.0,108.0,,,4,Hợp đồng mua bán,Không nội thất,6.0,10.641649570787989,106.69126920765412,"Dự án T&T Millennia City Long Hậu, Đường ĐT 826E, Xã Long Hậu, Cần Giuộc, Long An",Cần Giuộc,Long An
Biệt thự,300.0,,14,16,3,Sổ đỏ/ Sổ hồng,Đầy đủ,,11.9265371512725,108.442067365013,"Đường Đống Đa, Phường 3, Đà Lạt, Lâm Đồng",Đà Lạt,Lâm Đồng
Biệt thự,15.0,85.0,,,4,Sổ đỏ/ Sổ hồng,Cơ bản,5.0,10.805986061732767,106.7900352897472,"Dự án Verosa Park, Phường Phú Hữu, Quận 9, Hồ Chí Minh",Quận 9,Hồ Chí Minh
Biệt thự,39.0,150.0,,,4,Sổ đỏ,Không nội thất,10.0,21.0021655284826,105.964102101383,"Dự án Vinhomes Ocean Park Gia Lâm, Đường San Hô, Xã Đa Tốn, Gia Lâm, Hà Nội",Gia Lâm,Hà Nội
Biệt thự,78.0,226.7,,,4,Sổ đỏ/ Sổ hồng,Đầy đủ,,20.9696792954078,105.872622019307,"Dự án Gamuda Gardens, Đường Pháp Vân, Phường Trần Phú, Hoàng Mai, Hà Nội",Hoàng Mai,Hà Nội
Biệt thự,37.5,112.5,,,3,Sổ đỏ/ Sổ hồng,Đầy đủ,,20.9702835083008,105.871711730957,"Dự án Gamuda Gardens, Đường Pháp Vân, Phường Yên Sở, Hoàng Mai, Hà Nội",Hoàng Mai,Hà Nội
Nhà mặt phố,16.2,82.0,4,5,4,Sổ đỏ/ Sổ hồng,Đầy đủ,5.0,16.0563789797143,108.20793177366,"Đường Nguyễn Tri Phương, Phường An Khê, Thanh Khê, Đà Nẵng",Thanh Khê,Đà Nẵng
Nhà mặt phố,25.0,630.0,25,,2,Sổ đỏ/ Sổ hồng,,35.0,10.9639287512799,106.713095112089,"Dự án KDC Thuận Giao, Đường D6, Phường Thuận Giao, Thuận An, Bình Dương",Thuận An,Bình Dương
Nhà mặt phố,24.45,132.7,,,5,Sổ hồng,,,10.8485779167224,106.6671382981,"527, Đường Lê Đức Thọ, Phường 16, Gò Vấp, Hồ Chí Minh",Gò Vấp,Hồ Chí Minh
Nhà mặt phố,18.0,40.1,2,2,2,Sổ đỏ/ Sổ hồng,Đầy đủ,6.2,10.773840559565,106.677919911526,"Đường 3/2, Phường 11, Quận 10, Hồ Chí Minh",Quận 10,Hồ Chí Minh
Nhà mặt phố,15.0,140.0,5,,4,Sổ đỏ/ Sổ hồng,,,10.8250858427745,106.62543719359,"Đường Tân Thới Nhất 17, Phường Đông Hưng Thuận, Quận 12, Hồ Chí Minh",Quận 12,Hồ Chí Minh
Nhà mặt phố,27.0,85.8,6,,4,Sổ hồng riêng,,5.3,10.7938088621992,106.669205771554,"Đường Đặng Văn Ngữ, Phường 10, Phú Nhuận, Hồ Chí Minh",Phú Nhuận,Hồ Chí Minh
Nhà mặt phố,27.0,110.0,,,2,Sổ hồng riêng,,4.6,10.7940456406308,106.669283732071,"Đường Đặng Văn Ngữ, Phường 10, Phú Nhuận, Hồ Chí Minh",Phú Nhuận,Hồ Chí Minh
Nhà mặt phố,120.0,112.0,,,5,Sổ đỏ/ Sổ hồng,Đầy đủ,4.3,21.0271356429633,105.843537508046,"Phố Hai Bà Trưng, Phường Cửa Nam, Hoàn Kiếm, Hà Nội",Hoàn Kiếm,Hà Nội
Nhà mặt phố,6.5,65.3,,,4,Sổ hồng,"Full nội thất cao cấp: Bếp từ, máy rửa chén, tủ lạnh đông mềm, TV LG 55, máy giặt",,12.2986265572052,109.209097318884,"Đường Nguyễn Địa Lô, Phường Vĩnh Hòa, Nha Trang, Khánh Hòa",Nha Trang,Khánh Hòa
Nhà mặt phố,5.99,90.0,3,4,4,Sổ đỏ/ Sổ hồng,Cơ bản,6.0,12.1890632348273,109.16989101101,"Hòn Rớ 1, Đường Lưu Hữu Phước, Xã Phước Đồng, Nha Trang, Khánh Hòa",Nha Trang,Khánh Hòa
Nhà mặt phố,29.4,97.0,4,5,5,Sổ hồng riêng,,4.6,10.7937616877268,106.669222589679,"Đường Đặng Văn Ngữ, Phường 10, Phú Nhuận, Hồ Chí Minh",Phú Nhuận,Hồ Chí Minh
Nhà mặt phố,24.0,125.0,8,9,6,Sổ đỏ/ Sổ hồng,Đầy đủ,5.0,16.0433525686054,108.209849326607,"Đường Nguyễn Hữu Thọ, Phường Hòa Cường Bắc, Hải Châu, Đà Nẵng",Hải Châu,Đà Nẵng
Nhà mặt phố,16.5,173.7,,,3,Sổ đỏ/ Sổ hồng,Nội thất gỗ rất chắc chắn,12.0,10.7030348475248,106.621427493566,"Phú Lợi, Đường Phạm Thế Hiển, Phường 7, Quận 8, Hồ Chí Minh",Quận 8,Hồ Chí Minh
Nhà mặt phố,10.8,169.0,6,6,3,Sổ đỏ/ Sổ hồng,,5.0,10.8414690035137,106.791122848642,"Đường Làng Tăng Phú, Phường Tăng Nhơn Phú A, Quận 9, Hồ Chí Minh",Quận 9,Hồ Chí Minh
Nhà mặt phố,33.5,34.0,,2,4,Sổ đỏ/ Sổ hồng,,3.0,21.032586,105.8476167,"Phố Hàng Nón, Phường Hàng Gai, Hoàn Kiếm, Hà Nội",Hoàn Kiếm,Hà Nội
Nhà mặt phố,20.5,84.1,2,2,1,Số 672,Không nội thất,7.63,10.8307128085685,106.642108087244,"672, Đường Phạm Văn Bạch, Phường 12, Gò Vấp, Hồ Chí Minh",Gò Vấp,Hồ Chí Minh
Nhà mặt phố,72.0,184.0,5,10,8,Sổ đỏ/ Sổ hồng,,8.0,10.8146319336382,106.689676221116,"Đường Lê Quang Định, Phường 1, Gò Vấp, Hồ Chí Minh",Gò Vấp,Hồ Chí Minh
Nhà mặt phố,13.9,27.3,3,3,5,Sổ đỏ/ Sổ hồng,Cơ bản,,10.7589022054314,106.688299262915,"Đường Nguyễn Cảnh Chân, Phường Cầu Kho, Quận 1, Hồ Chí Minh",Quận 1,Hồ Chí Minh
Nhà mặt phố,27.9,131.2,6,7,5,Sổ đỏ/ Sổ hồng,,,10.7812289444045,106.663254361712,"Đường Bạch Mã, Phường 15, Quận 10, Hồ Chí Minh",Quận 10,Hồ Chí Minh
Nhà mặt phố,8.0,95.0,2,1,1,Sổ đỏ/ Sổ hồng,Đầy đủ,8.7,12.2893832965817,109.202435946627,"Đường Nguyễn Khắc Viện, Phường Vĩnh Hòa, Nha Trang, Khánh Hòa",Nha Trang,Khánh Hòa
Căn hộ chung cư,3.7,67.0,2,2,3,Hợp đồng mua bán,Cơ bản,,10.71821922500874,106.74240801057144,"Dự án Q7 Saigon Riverside, Đường Đào Trí, Phường Phú Thuận, Quận 7, Hồ Chí Minh",Quận 7,Hồ Chí Minh
Căn hộ chung cư,3.75,43.0,1,1,3,Sổ đỏ/ Sổ hồng,Đầy đủ,,21.0067312487391,105.744510802142,"Dự án The Miami, Phường Tây Mỗ, Nam Từ Liêm, Hà Nội",Nam Từ Liêm,Hà Nội
Căn hộ chung cư,6.2,115.0,3,2,3,Sổ đỏ/ Sổ hồng,Đầy đủ,,20.95407273288983,105.7454275200928,"Dự án CT1 Yên Nghĩa, Phường Yên Nghĩa, Hà Đông, Hà Nội",Hà Đông,Hà Nội
Căn hộ chung cư,3.9,59.0,1,1,3,Sổ đỏ/ Sổ hồng,Cơ bản,,10.755652215366418,106.68984782649554,"Dự án Vạn Đô, Đường Bến Vân Đồn, Phường 1, Quận 4, Hồ Chí Minh",Quận 4,Hồ Chí Minh
Căn hộ chung cư,6.9,97.0,2,2,3,Sổ đỏ/ Sổ hồng,Đầy đủ,,10.7220106007762,106.702339432847,"Dự án Sunrise Riverside, Đường Nguyễn Hữu Thọ, Xã Phước Kiển, Nhà Bè, Hồ Chí Minh",Nhà Bè,Hồ Chí Minh
Căn hộ chung cư,4.4,41.9,1,1,3,Sổ đỏ/ Sổ hồng,Đầy đủ,,21.005776165389875,105.7372678705743,"Dự án Masteri West Heights, Phường Tây Mỗ, Nam Từ Liêm, Hà Nội",Nam Từ Liêm,Hà Nội
Căn hộ chung cư,3.6,59.32,2,1,3,Sổ hồng riêng,Đầy đủ,,10.8024058420526,106.676893829477,"Đường Hồ Văn Huê, Phường 9, Phú Nhuận, Hồ Chí Minh",Phú Nhuận,Hồ Chí Minh
Căn hộ chung cư,5.4,86.0,3,2,3,Sổ đỏ/ Sổ hồng,,,20.9560065365768,105.845266201831,"Dự án Pháp Vân Tứ Hiệp, Phường Hoàng Liệt, Hoàng Mai, Hà Nội",Hoàng Mai,Hà Nội
Căn hộ chung cư,5.62,64.1,2,2,3,Sổ đỏ/ Sổ hồng,Đầy đủ,,20.9991513239179,105.738811369994,"Dự án Imperia Smart City, Đường Đại lộ Thăng Long, Phường Tây Mỗ, Nam Từ Liêm, Hà Nội",Nam Từ Liêm,Hà Nội
Căn hộ chung cư,3.0,49.0,1,1,3,Sổ đỏ/ Sổ hồng,Đầy đủ,,10.73661595111347,106.74017571445226,"Dự án Jamona City, Đường Đào Trí, Phường Phú Thuận, Quận 7, Hồ Chí Minh",Quận 7,Hồ Chí Minh
Căn hộ chung cư,6.45,63.7,2,2,3,Sổ đỏ/ Sổ hồng,Đầy đủ,,21.006644319718,105.736805850494,"Dự án Masteri West Heights, Phường Tây Mỗ, Nam Từ Liêm, Hà Nội",Nam Từ Liêm,Hà Nội
Căn hộ chung cư,3.95,55.0,2,1,3,Sổ đỏ/ Sổ hồng,Cơ bản,,10.714794984071435,106.73755389138134,"Dự án River Panorama, Đường Hoàng Quốc Việt, Phường Phú Thuận, Quận 7, Hồ Chí Minh",Quận 7,Hồ Chí Minh
Căn hộ chung cư,2.7,47.0,1,,3,Sổ đỏ/ Sổ hồng,Đầy đủ,,10.83652165971994,106.838255028587,"Dự án The Rainbow - Vinhomes Grand Park, Đường Nguyễn Xiển, Phường Long Thạnh Mỹ, Quận 9, Hồ Chí Minh",Quận 9,Hồ Chí Minh
Căn hộ chung cư,3.85,55.5,2,1,3,Sổ đỏ/ Sổ hồng,Cơ bản,,21.00243300052411,105.96398778546072,"Dự án Vinhomes Ocean Park Gia Lâm, Xã Đa Tốn, Gia Lâm, Hà Nội",Gia Lâm,Hà Nội
Căn hộ chung cư,6.15,73.9,3,2,3,Sổ đỏ/ Sổ hồng,Đầy đủ,,21.006263303924875,105.73680892580036,"Dự án The Sapphire-Vinhomes Smart City, Phường Tây Mỗ, Nam Từ Liêm, Hà Nội",Nam Từ Liêm,Hà Nội
Căn hộ chung cư,3.19,69.0,2,2,3,Sổ đỏ/ Sổ hồng,Cơ bản,,10.83687988015067,106.83839527618667,"Dự án The Rainbow - Vinhomes Grand Park, Đường Nguyễn Xiển, Phường Long Thạnh Mỹ, Quận 9, Hồ Chí Minh",Quận 9,Hồ Chí Minh
Căn hộ chung cư,10.5,103.8,3,2,3,Sổ đỏ/ Sổ hồng,Cơ bản,,21.08460248166156,105.79171258928132,"Dự án Sunshine City, Đường Phạm Văn Đồng, Phường Đông Ngạc, Bắc Từ Liêm, Hà Nội",Bắc Từ Liêm,Hà Nội
Căn hộ chung cư,12.0,103.8,3,2,3,Sổ đỏ/ Sổ hồng,"Đầy đủ Giường tủ, bàn ghế, bếp, điều hòa 2 chiều Daikin, smarthome thông minh, TBVS Kohler",,21.08462648505012,105.79237267153091,"Dự án Sunshine City, Đường Phạm Văn Đồng, Phường Đông Ngạc, Bắc Từ Liêm, Hà Nội",Bắc Từ Liêm,Hà Nội
Căn hộ chung cư,7.95,82.8,2,2,3,Sổ đỏ/ Sổ hồng,Đầy đủ,,20.986069536878787,105.81240658883584,"Dự án Five Star Kim Giang, Đường Kim Giang, Phường Hạ Đình, Thanh Xuân, Hà Nội",Thanh Xuân,Hà Nội
Căn hộ chung cư,3.5,59.0,2,2,3,Hợp đồng mua bán,Cơ bản,,10.836012890571638,106.84788105554146,"Dự án Glory Heights - Vinhomes Grand Park, Đường Nguyễn Xiển, Phường Long Bình, Quận 9, Hồ Chí Minh",Quận 9,Hồ Chí Minh
Nhà riêng,19.5,85.4,6,8,6,Sổ đỏ/ Sổ hồng,Cơ bản,,10.7628328027455,106.698397192711,"Đường Bến Vân Đồn, Phường 6, Quận 4, Hồ Chí Minh",Quận 4,Hồ Chí Minh
Nhà riêng,7.58,34.0,5,,4,Sổ đỏ/ Sổ hồng,,,10.8020080477496,106.687605946053,"Đường Phan Tây Hồ, Phường 7, Phú Nhuận, Hồ Chí Minh",Phú Nhuận,Hồ Chí Minh
Nhà riêng,7.5,59.2,4,5,4,Sổ đỏ/ Sổ hồng,,4.7,10.8455949277771,106.718076533622,"Đường Quốc Lộ 13, Phường Hiệp Bình Phước, Thủ Đức, Hồ Chí Minh",Thủ Đức,Hồ Chí Minh
Nhà riêng,8.5,25.6,2,2,2,Sổ đỏ/ Sổ hồng,,,10.7592376764768,106.687276353724,"Đường Trần Hưng Đạo, Phường Cầu Kho, Quận 1, Hồ Chí Minh",Quận 1,Hồ Chí Minh
Nhà riêng,6.5,170.0,10,11,3,Sổ đỏ/ Sổ hồng,Đầy đủ,7.5,20.879724049575,106.607460994087,"Phường Nam Sơn, An Dương, Hải Phòng",An Dương,Hải Phòng
Nhà riêng,31.0,54.3,5,5,5,Sổ đỏ/ Sổ hồng,Đầy đủ,4.6,21.013066546394143,105.81972415477864,"Ngõ 178, Phố Thái Hà, Phường Trung Liệt, Đống Đa, Hà Nội",Đống Đa,Hà Nội
Nhà riêng,26.0,55.76,4,,7,Sổ đỏ/ Sổ hồng,Đầy đủ,,21.0367703966975,105.785598226206,"Đường Xuân Thủy, Phường Dịch Vọng Hậu, Cầu Giấy, Hà Nội",Cầu Giấy,Hà Nội
Nhà riêng,6.95,35.0,5,3,4,Sổ đỏ/ Sổ hồng,Cơ bản,4.0,20.9826415873826,105.821435800712,"Đường Định Công Thượng, Phường Định Công, Hoàng Mai, Hà Nội",Hoàng Mai,Hà Nội
Nhà riêng,15.0,50.0,12,12,7,Sổ đỏ/ Sổ hồng,Đầy đủ,4.0,21.0205365756839,105.774779737089,"Đường Đình Thôn, Phường Mỹ Đình 1, Nam Từ Liêm, Hà Nội",Nam Từ Liêm,Hà Nội
Nhà riêng,8.9,45.0,,,5,Sổ đỏ/ Sổ hồng,,3.5,21.038482463568,105.903162650768,"Đường Chu Huy Mân, Phường Phúc Đồng, Long Biên, Hà Nội",Long Biên,Hà Nội
Nhà riêng,3.75,23.0,2,3,4,Sổ đỏ/ Sổ hồng,,,10.7577425353291,106.706671371762,"Đường Tôn Đản, Phường 4, Quận 4, Hồ Chí Minh",Quận 4,Hồ Chí Minh
Nhà riêng,6.78,83.0,4,4,3,Sổ riêng hoàn công đầy,Nội thất cao cấp,5.0,10.8439435787483,106.595308428117,"Xã Bà Điểm, Hóc Môn, Hồ Chí Minh",Hóc Môn,Hồ Chí Minh
Nhà riêng,4.05,70.0,3,2,2,Sổ đỏ/ sổ hồng,,4.4,10.6932401256524,106.740657479879,"Đường Huỳnh Tấn Phát, Thị trấn Nhà Bè, Nhà Bè, Hồ Chí Minh",Nhà Bè,Hồ Chí Minh
Nhà riêng,24.5,61.0,9,5,8,Sổ đỏ,Đầy đủ,6.2,21.00117823226,105.832716801922,"Phố Lương Định Của, Phường Kim Liên, Đống Đa, Hà Nội",Đống Đa,Hà Nội
Nhà riêng,11.5,78.0,5,5,4,Sổ đỏ/ Sổ hồng,Đầy đủ nội thất,4.8,10.8077278991605,106.702877213468,"Đường Bùi Đình Túy, Phường 12, Bình Thạnh, Hồ Chí Minh",Bình Thạnh,Hồ Chí Minh
Nhà riêng,9.5,71.0,,,4,Sổ đỏ/ Sổ hồng,Đầy đủ,5.0,10.84086596956,106.642214925617,"Đường Nguyễn Duy Cung, Phường 12, Gò Vấp, Hồ Chí Minh",Gò Vấp,Hồ Chí Minh
Nhà riêng,12.9,50.7,11,11,7,Sổ đỏ/ Sổ hồng,Đầy đủ,5.4,21.0436910985807,105.737706902479,"Đường Xuân Phương, Phường Xuân Phương, Nam Từ Liêm, Hà Nội",Nam Từ Liêm,Hà Nội
Nhà riêng,7.2,52.0,4,3,4,Sổ đỏ/ Sổ hồng,Đầy đủ,5.15,10.814108903322,106.689915146276,"Đường Lê Quang Định, Phường 5, Bình Thạnh, Hồ Chí Minh",Bình Thạnh,Hồ Chí Minh
Nhà riêng,10.8,53.1,3,3,3,Sổ đỏ/ Sổ hồng,,,10.8086963648808,106.687723673259,"Đường Hoàng Hoa Thám, Phường 6, Bình Thạnh, Hồ Chí Minh",Bình Thạnh,Hồ Chí Minh
Nhà riêng,19.5,60.0,4,5,5,Sổ đỏ/ Sổ hồng,Cơ bản,5.3,21.0182664522817,105.804313005609,"số 11A ngách 53 ngõ 157 Phố Pháo Đài Láng, Phường Láng Thượng, Đống Đa, Hà Nội",Đống Đa,Hà Nội
Biệt thự,37.5,112.5,,,3,Sổ đỏ/ Sổ hồng,Đầy đủ,,20.9702835083008,105.871711730957,"Dự án Gamuda Gardens, Đường Pháp Vân, Phường Yên Sở, Hoàng Mai, Hà Nội",Hoàng Mai,Hà Nội
Biệt thự,9.1,55.0,6,5,5,Sổ đỏ/ Sổ hồng,Cơ bản,5.0,20.9436009093954,105.980483209902,"Dự án Vinhomes Ocean Park 2, Đường Sao Biển 6, Xã Nghĩa Trụ, Văn Giang, Hưng Yên",Văn Giang,Hưng Yên
Biệt thự,13.2,97.5,6,5,5,Sổ đỏ/ Sổ hồng,Không nội thất,6.5,20.9437562525312,105.97995450273066,"Dự án Vinhomes Ocean Park 2, Xã Nghĩa Trụ, Văn Giang, Hưng Yên",Văn Giang,Hưng Yên
Biệt thự,5.7,80.0,,,5,Sổ đỏ/ Sổ hồng,Không nội thất,5.0,19.81101225499,105.815930743496,"Central Riverside Thanh Hóa, Đông Hải, Thanh Hóa, Thanh Hóa",Thanh Hóa,Thanh Hóa
Biệt thự,9.5,130.0,3,3,3,Sổ đỏ/ Sổ hồng,Không nội thất,10.0,20.8254181037225,106.720015879231,"Đường Bùi Viện, Phường Thành Tô, Hải An, Hải Phòng",Hải An,Hải Phòng
Biệt thự,35.9,110.0,5,4,3,Sổ đỏ/ Sổ hồng,Đầy đủ,10.0,10.8061264784013,106.74226325016,"Đường Số 4, Phường Thảo Điền, Quận 2, Hồ Chí Minh",Quận 2,Hồ Chí Minh
Biệt thự,6.6,117.0,4,3,3,Hợp đồng mua bán,Không nội thất,6.0,10.8593912124634,106.854721069336,"Dự án Izumi City, Đường Hương lộ 2, Xã Long Hưng, Biên Hòa, Đồng Nai",Biên Hòa,Đồng Nai
Biệt thự,58.0,324.0,5,5,3,Sổ đỏ/ Sổ hồng,Đầy đủ,18.0,20.9746377435387,105.922464923969,"Dự án Ecopark, Đường Trúc, Xã Xuân Quan, Văn Giang, Hưng Yên",Văn Giang,Hưng Yên
Biệt thự,78.0,203.0,,,3,Sổ đỏ/ Sổ hồng,,16.0,20.9837587283151,105.751722693944,"Dự án An Phú Shop Villa, Đường Lê Quang Đạo, Phường Dương Nội, Hà Đông, Hà Nội",Hà Đông,Hà Nội
Biệt thự,48.0,187.5,5,5,4,Sổ đỏ/ Sổ hồng,Không nội thất,12.0,10.776352426973,106.758594783098,"Dự án Victoria Village, Đường Đồng Văn Cống, Phường Thạnh Mỹ Lợi, Quận 2, Hồ Chí Minh",Quận 2,Hồ Chí Minh
Biệt thự,26.5,162.0,4,3,3,Sổ đỏ/ Sổ hồng,Không nội thất,,20.9742073294529,105.922116172014,"Khu đô thị Ecopark, Trúc, Xuân Quan, Văn Giang, Hưng Yên",Văn Giang,Hưng Yên
Biệt thự,92.037,497.5,,,3,Sổ đỏ/ Sổ hồng,,,21.002020781050508,105.70761938516816,"Dự án Nam An Khánh, Đường Láng Hòa Lạc, Xã An Khánh, Hoài Đức, Hà Nội",Hoài Đức,Hà Nội
Biệt thự,85.0,692.0,5,6,3,Sổ đỏ/ Sổ hồng,Cơ bản,12.0,10.8064036335859,106.778723068404,"Dự án Riviera Cove, Đường D1A, Phường Phước Long B, Quận 9, Hồ Chí Minh",Quận 9,Hồ Chí Minh
Biệt thự,65.0,270.0,4,5,4,Sổ hồng,Đầy đủ full nội thất,15.0,10.776878407444752,106.759290781703,"Dự án Victoria Village, Đường Số 65A, Phường Thạnh Mỹ Lợi, Quận 2, Hồ Chí Minh",Quận 2,Hồ Chí Minh
Biệt thự,22.9,220.0,,,4,Sổ đỏ/ Sổ hồng,,10.0,21.1161350250732,105.976982163524,"Dự án KĐT Mạnh Đức, Đường Nguyên Phi Ỷ Lan, Phường Tân Hồng, Từ Sơn, Bắc Ninh",Từ Sơn,Bắc Ninh
Biệt thự,7.5,48.0,,,5,Sổ đỏ/ Sổ hồng,,,20.94380403257129,105.97977567588104,"Dự án Vinhomes Ocean Park 2, Xã Nghĩa Trụ, Văn Giang, Hưng Yên",Văn Giang,Hưng Yên
Biệt thự,60.744,506.2,,,3,Sổ đỏ/ Sổ hồng,Thô,16.0,21.0021328363547,105.707037277112,"Dự án Nam An Khánh, Đường Láng Hòa Lạc, Xã An Khánh, Hoài Đức, Hà Nội",Hoài Đức,Hà Nội
Biệt thự,53.46,324.0,5,5,3,Sổ đỏ/ Sổ hồng,,,20.9739215687057,105.922303593298,"Dự án Ecopark, Đường Trúc, Xã Xuân Quan, Văn Giang, Hưng Yên",Văn Giang,Hưng Yên
Biệt thự,78.0,203.0,,,3,Sổ đỏ/ Sổ hồng,,9.0,10.8052079368066,106.736087365232,"Đường Ngô Quang Huy, Phường Thảo Điền, Quận 2, Hồ Chí Minh",Quận 2,Hồ Chí Minh
Biệt thự,90.0,485.0,,,4,Sổ đỏ/ Sổ hồng,Đầy đủ,12.0,10.8060546697496,106.778740315403,"Dự án Riviera Cove, Đường D1A, Phường Phước Long B, Quận 9, Hồ Chí Minh",Quận 9,Hồ Chí Minh
Nhà mặt phố,27.9,131.2,6,7,5,Sổ đỏ/ Sổ hồng,,,10.7812289444045,106.663254361712,"Đường Bạch Mã, Phường 15, Quận 10, Hồ Chí Minh",Quận 10,Hồ Chí Minh
Nhà mặt phố,8.0,95.0,2,1,1,Sổ đỏ/ Sổ hồng,Đầy đủ,8.7,12.2893832965817,109.202435946627,"Đường Nguyễn Khắc Viện, Phường Vĩnh Hòa, Nha Trang, Khánh Hòa",Nha Trang,Khánh Hòa
Nhà mặt phố,74.0,113.6,7,5,8,Sổ đỏ/ Sổ hồng,Đầy đủ,,20.9980636559012,105.850373387899,"Phố Bạch Mai, Phường Bạch Mai, Hai Bà Trưng, Hà Nội",Hai Bà Trưng,Hà Nội
Nhà mặt phố,22.0,72.8,5,6,5,Sổ đỏ/ Sổ hồng,,4.5,10.7588266377973,106.671166610029,"Đường Hùng Vương, Phường 9, Quận 5, Hồ Chí Minh",Quận 5,Hồ Chí Minh
Nhà mặt phố,24.8,66.4,5,6,5,Sổ hồng chính chủ thuận tiện mua bán,,4.0,10.7913823320993,106.694200519295,"Đường Lý Văn Phức, Phường Tân Định, Quận 1, Hồ Chí Minh",Quận 1,Hồ Chí Minh
Nhà mặt phố,4.75,40.0,3,2,2,Sổ đỏ/ Sổ hồng,Cơ bản,3.0,10.7841629791219,106.616700942788,"Đường Số 5, Phường Bình Hưng Hòa A, Bình Tân, Hồ Chí Minh",Bình Tân,Hồ Chí Minh
Nhà mặt phố,40.0,180.0,1,1,4,Sổ đỏ/ Sổ hồng,,5.0,10.7875965246002,106.764537825012,"Đường Nguyễn Duy Trinh, Phường Bình Trưng Tây, Quận 2, Hồ Chí Minh",Quận 2,Hồ Chí Minh
Nhà mặt phố,18.3,100.0,,,3,Sổ đỏ/ Sổ hồng,,5.0,16.0654725229992,108.188661515375,"Đường Điện Biên Phủ, Phường An Khê, Thanh Khê, Đà Nẵng",Thanh Khê,Đà Nẵng
Nhà mặt phố,27.8,86.0,6,7,4,Sổ đỏ/ Sổ hồng,,4.2,10.7602059635293,106.669912117894,"Đường Nguyễn Chí Thanh, Phường 9, Quận 5, Hồ Chí Minh",Quận 5,Hồ Chí Minh
Nhà mặt phố,28.5,210.0,21,21,4,Sổ đỏ/ Sổ hồng,Đầy đủ,10.0,10.8450557129428,106.801397298892,"Đường Số 494, Phường Tăng Nhơn Phú A, Thủ Đức, Hồ Chí Minh",Thủ Đức,Hồ Chí Minh
Nhà mặt phố,20.0,110.0,11,12,6,Sổ đỏ/ Sổ hồng,Đầy đủ,5.0,12.223360202614758,109.18049400301896,"Dự án VCN - Phước Long, Đường B5-22, Phường Phước Long, Nha Trang, Khánh Hòa",Nha Trang,Khánh Hòa
Nhà mặt phố,39.9,134.7,4,5,3,Sổ đỏ/ Sổ hồng,,5.0,10.7842905766687,106.696801399077,"Đường Hai Bà Trưng, Phường Đa Kao, Quận 1, Hồ Chí Minh",Quận 1,Hồ Chí Minh
Nhà mặt phố,27.8,71.0,6,6,4,Sổ đỏ/ Sổ hồng,,4.0,10.7740561055811,106.677738966198,"Đường Cao Thắng, Phường 12, Quận 10, Hồ Chí Minh",Quận 10,Hồ Chí Minh
Nhà mặt phố,6.5,44.7,2,3,4,Sổ đỏ/ Sổ hồng,Đầy đủ,3.8,10.7412076109784,106.672078146819,"Đường 16, Phường 4, Quận 8, Hồ Chí Minh",Quận 8,Hồ Chí Minh
Nhà mặt phố,17.9,71.4,6,6,5,Sổ đỏ/ Sổ hồng,Cơ bản,4.75,10.7050319408123,106.734825269108,"Số 01, Đường Phạm Hữu Lầu, Phường Phú Mỹ, Quận 7, Hồ Chí Minh",Quận 7,Hồ Chí Minh
Nhà mặt phố,9.4,85.0,4,5,4,Sổ đỏ/ Sổ hồng,Đầy đủ,5.0,10.678208176456598,106.75439823056315,"Dự án Green Riverside, Đường Huỳnh Tấn Phát, Xã Phú Xuân, Nhà Bè, Hồ Chí Minh",Nhà Bè,Hồ Chí Minh
Nhà mặt phố,26.5,71.7,,,4,Sổ đỏ,,4.0,10.7713592552478,106.670579691054,"Đường Trần Thiện Chánh, Phường 12, Quận 10, Hồ Chí Minh",Quận 10,Hồ Chí Minh
Nhà mặt phố,8.0,41.0,2,,4,Sổ đỏ/ Sổ hồng,Đầy đủ,4.0,20.9601469056804,107.020988034914,"Đường Cái Dăm, Phường Bãi Cháy, Hạ Long, Quảng Ninh",Hạ Long,Quảng Ninh
Nhà mặt phố,5.1,56.2,4,3,3,Sổ đỏ/ Sổ hồng,Cơ bản,4.0,10.8154239700204,106.830576551615,"Phường Trường Thạnh, Quận 9, Hồ Chí Minh",Quận 9,Hồ Chí Minh
Nhà mặt phố,15.5,51.8,2,2,2,Sổ đỏ/ Sổ hồng,,4.0,10.8348185182909,106.684218262024,"Đường Dương Quảng Hàm, Phường 6, Gò Vấp, Hồ Chí Minh",Gò Vấp,Hồ Chí Minh
Căn hộ chung cư,3.5,59.0,2,2,3,Hợp đồng mua bán,Cơ bản,,10.836012890571638,106.84788105554146,"Dự án Glory Heights - Vinhomes Grand Park, Đường Nguyễn Xiển, Phường Long Bình, Quận 9, Hồ Chí Minh",Quận 9,Hồ Chí Minh
Căn hộ chung cư,7.0,84.0,3,,3,Sổ đỏ/ Sổ hồng,Đầy đủ,,21.03592937768837,105.90673220784684,"Dự án Le Grand Jardin Sài Đồng, Đường Huỳnh Văn Nghệ, Phường Phúc Đồng, Long Biên, Hà Nội",Long Biên,Hà Nội
Căn hộ chung cư,7.7,81.5,2,2,3,Sổ đỏ/ Sổ hồng,Đầy đủ,,20.9870146368118,105.786448864765,"Dự án Seasons Avenue, Đường Nguyễn Văn Lộc, Phường Mỗ Lao, Hà Đông, Hà Nội",Hà Đông,Hà Nội
Căn hộ chung cư,12.0,146.4,3,2,3,Sổ đỏ/ Sổ hồng,Đầy đủ,,21.0091022479717,105.820166313948,"Hà Thành Plaza, 102, Phố Thái Thịnh, Phường Trung Liệt, Đống Đa, Hà Nội",Đống Đa,Hà Nội
Căn hộ chung cư,3.95,55.0,2,1,3,Hợp đồng mua bán,Cơ bản,,10.714136280820547,106.73792829425618,"Dự án River Panorama, Đường Hoàng Quốc Việt, Phường Phú Thuận, Quận 7, Hồ Chí Minh",Quận 7,Hồ Chí Minh
Căn hộ chung cư,2.45,22.01,1,1,3,Sổ đỏ/ Sổ hồng,,,10.7673718635299,106.694919268948,"Đường Trần Hưng Đạo, Phường Phạm Ngũ Lão, Quận 1, Hồ Chí Minh",Quận 1,Hồ Chí Minh
Căn hộ chung cư,2.4,40.3,1,1,3,Sổ đỏ/ Sổ hồng,,,10.7978863552824,106.698823410622,"Dự án Mỹ Phước, Đường Bùi Hữu Nghĩa, Phường 2, Bình Thạnh, Hồ Chí Minh",Bình Thạnh,Hồ Chí Minh
Căn hộ chung cư,6.3,64.7,2,2,3,Sổ đỏ/ Sổ hồng,"Nhà mới, cơ bản",,10.749755731101336,106.7229381071027,"Dự án Eco Green Sài Gòn, Đường Nguyễn Văn Linh, Phường Tân Thuận Tây, Quận 7, Hồ Chí Minh",Quận 7,Hồ Chí Minh
Căn hộ chung cư,3.85,43.0,1,1,3,Sổ đỏ/ Sổ hồng,Đầy đủ,,21.0064030722311,105.737372269096,"Dự án The Sapphire-Vinhomes Smart City, Phường Tây Mỗ, Nam Từ Liêm, Hà Nội",Nam Từ Liêm,Hà Nội
Căn hộ chung cư,4.4,65.8,2,2,3,Sổ đỏ,,,10.7978602973861,106.68978882697,"Chung cư Phan Xích Long, Phan Xích Long, 7, Phú Nhuận, Hồ Chí Minh",Phú Nhuận,Hồ Chí Minh
Căn hộ chung cư,2.25,58.0,2,2,3,Sổ đỏ/ Sổ hồng,Cơ bản,,10.890711695493442,106.78465694445522,"Dự án Bcons Suối Tiên, Đường Tân Lập, Phường Đông Hòa, Dĩ An, Bình Dương",Dĩ An,Bình Dương
Căn hộ chung cư,11.9,118.0,3,2,3,Sổ đỏ/ Sổ hồng,Đầy đủ,,10.77666294188366,106.75548559529324,"Dự án Vista Verde, Đường Phan Văn Đáng, Phường Thạnh Mỹ Lợi, Quận 2, Hồ Chí Minh",Quận 2,Hồ Chí Minh
Căn hộ chung cư,8.69,87.0,2,2,3,Sổ đỏ/ Sổ hồng,Đầy đủ,,21.04094280783669,105.7899137364724,"Dự án AZ Lâm Viên Complex, Đường Nguyễn Phong Sắc, Phường Dịch Vọng Hậu, Cầu Giấy, Hà Nội",Cầu Giấy,Hà Nội
Căn hộ chung cư,4.85,65.0,2,2,3,Sổ đỏ/ Sổ hồng,Đầy đủ,,10.7141937093291,106.737839216257,"River Panorama, Hoàng Quốc Việt, Phú Thuận, Quận 7, Hồ Chí Minh",Quận 7,Hồ Chí Minh
Căn hộ chung cư,8.5,94.76,3,2,3,Hợp đồng mua bán,Nội thất cơ bản chủ đầu tư,,10.7497803727867,106.72382955155,"Eco Green Sài Gòn, Nguyễn Văn Linh, Tân Thuận Tây, Quận 7, Hồ Chí Minh",Quận 7,Hồ Chí Minh
Căn hộ chung cư,10.5,126.0,3,2,3,Sổ đỏ/ Sổ hồng,Đầy đủ,,21.0202141081768,105.808943049468,"M3 - M4 Nguyễn Chí Thanh, 91, Đường Nguyễn Chí Thanh, Phường Láng Hạ, Đống Đa, Hà Nội",Đống Đa,Hà Nội
Căn hộ chung cư,7.7,75.0,2,,3,Sổ đỏ/ Sổ hồng,Đầy đủ,,10.8024409479185,106.741949677425,"Dự án Masteri Thảo Điền, Đường Xa Lộ Hà Nội, Phường Thảo Điền, Quận 2, Hồ Chí Minh",Quận 2,Hồ Chí Minh
Căn hộ chung cư,31.0,229.7,4,3,3,Sổ đỏ/ Sổ hồng,Đầy đủ,,10.800890035064038,106.7491430376408,"Dự án The Estella, Đường Xa Lộ Hà Nội, Phường An Phú, Quận 2, Hồ Chí Minh",Quận 2,Hồ Chí Minh
Căn hộ chung cư,12.9,90.0,3,2,3,Sổ đỏ/ Sổ hồng,Đầy đủ,,21.0058458619245,105.794037666324,"Vinhomes D'Capitale, Trần Duy Hưng, Trung Hòa, Cầu Giấy, Hà Nội",Cầu Giấy,Hà Nội
Căn hộ chung cư,8.45,86.0,2,2,3,Sổ đỏ,Đồ như hình,,21.084555678905534,105.79077798584235,"Dự án Sunshine City, Phường Đông Ngạc, Bắc Từ Liêm, Hà Nội",Bắc Từ Liêm,Hà Nội
Nhà riêng,4.75,60.0,3,3,2,Sổ đỏ/ Sổ hồng chung,Đầy đủ,4.0,10.7406171887298,106.735980885757,"Hẻm 123, Đường Nguyễn Văn Quỳ, Phường Tân Thuận Đông, Quận 7, Hồ Chí Minh",Quận 7,Hồ Chí Minh
Nhà riêng,4.8,100.0,3,,1,Sổ đỏ/ Sổ hồng,,6.3,10.8763410785536,106.753911924269,"Đường 1, Phường Dĩ An, Dĩ An, Bình Dương",Dĩ An,Bình Dương
Nhà riêng,13.0,75.0,9,9,5,Sổ đỏ/ Sổ hồng,,5.2,10.8071713189343,106.695195069989,"Đường Nơ Trang Long, Phường 7, Bình Thạnh, Hồ Chí Minh",Bình Thạnh,Hồ Chí Minh
Nhà riêng,9.7,79.0,5,4,3,Sổ đỏ/ Sổ hồng,Không nội thất,4.2,10.8219354293244,106.776949886805,"Đường Số 109, Phường Phước Long B, Quận 9, Hồ Chí Minh",Quận 9,Hồ Chí Minh
Nhà riêng,5.4,86.2,4,3,1,Sổ đỏ/ Sổ hồng,,4.0,10.8909243281517,106.590611587714,"Đường Lê Lợi, Thị trấn Hóc Môn, Hóc Môn, Hồ Chí Minh",Hóc Môn,Hồ Chí Minh
Nhà riêng,13.0,60.8,18,18,7,Sổ đỏ/ Sổ hồng,,,21.0209837834719,105.768234239672,"Phường Mỹ Đình 1, Nam Từ Liêm, Hà Nội",Nam Từ Liêm,Hà Nội
Nhà riêng,2.75,47.7,2,2,4,Sổ đỏ,,,20.8631266651135,106.666776977293,"Phường Thượng Lý, Hồng Bàng, Hải Phòng",Hồng Bàng,Hải Phòng
Nhà riêng,8.75,36.9,6,,5,Sổ đỏ chính chủ,,,21.020628228579,105.768375973611,"Phường Mỹ Đình 1, Nam Từ Liêm, Hà Nội",Nam Từ Liêm,Hà Nội
Nhà riêng,4.7,40.0,2,2,2,Sổ đỏ/ Sổ hồng,Cơ bản,4.0,10.7273141417212,106.633998036145,"Đường Mễ Cốc, Phường 15, Quận 8, Hồ Chí Minh",Quận 8,Hồ Chí Minh
Nhà riêng,5.0,87.8,2,2,1,Sổ đỏ/ Sổ hồng,Cơ bản,16.0,10.8602049719293,106.749004099235,"27/2/3C, Đường Số 2, Phường Tam Phú, Thủ Đức, Hồ Chí Minh",Thủ Đức,Hồ Chí Minh
Nhà riêng,2.38,45.0,4,3,3,Sổ đỏ/ Sổ hồng,Cơ bản,5.0,20.7843415195398,106.722261772685,"65/879, Đường Phạm Văn Đồng, Phường Hải Thành, Dương Kinh, Hải Phòng",Dương Kinh,Hải Phòng
Nhà riêng,5.25,54.0,2,2,2,Sổ đỏ/ Sổ hồng,Đầy đủ,4.2,10.8432227714803,106.796184469238,"Phường Tăng Nhơn Phú A, Thủ Đức, Hồ Chí Minh",Thủ Đức,Hồ Chí Minh
Nhà riêng,2.59,43.0,3,2,2,Sổ đỏ/ Sổ hồng,Cơ bản,,10.9603033645683,106.832306653065,"Đường Nguyễn Ái Quốc, Phường Tân Phong, Biên Hòa, Đồng Nai",Biên Hòa,Đồng Nai
Nhà riêng,11.0,102.3,7,7,2,Sổ đỏ/ Sổ hồng,Đầy đủ,4.4,10.8007743529985,106.643389522055,"74/36 Đường Núi Thành, Phường 13, Tân Bình, Hồ Chí Minh",Tân Bình,Hồ Chí Minh
Nhà riêng,7.85,160.0,2,1,4,Sổ riêng,,,10.8487683411815,106.723601124772,"Đường Số 10, Phường Hiệp Bình Phước, Thủ Đức, Hồ Chí Minh",Thủ Đức,Hồ Chí Minh
Nhà riêng,14.5,81.0,6,,4,Sổ đỏ,,4.0,10.7939945979025,106.681013973607,"Đường Huỳnh Văn Bánh, Phường 17, Phú Nhuận, Hồ Chí Minh",Phú Nhuận,Hồ Chí Minh
Nhà riêng,15.8,60.0,4,5,4,Sổ hồng riêng,,4.45,10.7627352532961,106.687064522679,"Đường Nguyễn Trãi, Phường Nguyễn Cư Trinh, Quận 1, Hồ Chí Minh",Quận 1,Hồ Chí Minh
Nhà riêng,11.6,50.0,5,5,4,Sổ đỏ/ Sổ hồng,Đầy đủ,,21.016302140294,105.832976181922,"Đường Đê La Thành, Phường Giảng Võ, Ba Đình, Hà Nội",Ba Đình,Hà Nội
Nhà riêng,5.6,73.0,4,2,2,Sổ đỏ/ Sổ hồng,Đầy đủ,4.6,10.8489016538816,106.693067918461,"Đường Vườn Lài, Phường An Phú Đông, Quận 12, Hồ Chí Minh",Quận 12,Hồ Chí Minh
Nhà riêng,12.8,94.0,4,5,3,Sổ đỏ/ Sổ hồng,,5.8,10.8541748992743,106.762288371958,"Phường Linh Chiểu, Thủ Đức, Hồ Chí Minh",Thủ Đức,Hồ Chí Minh
Biệt thự,,,,,4,,,,,,,Thuận An,Bình Dương
Nhà mặt phố,21.5,71.1,4,5,7,Sổ hồng,,6.0,10.8101051475452,106.68948641712,"Đường Nguyễn Văn Đậu, Phường 5, Bình Thạnh, Hồ Chí Minh",Bình Thạnh,Hồ Chí Minh
Nhà mặt phố,16.5,74.0,,,2,Có sổ,Cơ bản,4.0,10.8150439,106.6729415,"161A, Đường Bạch Đằng, Phường 2, Tân Bình, Hồ Chí Minh",Tân Bình,Hồ Chí Minh
Nhà mặt phố,90.0,227.0,,,6,Sổ hồng,Đầy đủ,13.0,10.8044363465093,106.68942739446,"Đường Nguyễn Huy Tưởng, Phường 6, Bình Thạnh, Hồ Chí Minh",Bình Thạnh,Hồ Chí Minh
Nhà mặt phố,17.9,90.0,4,5,4,Sổ hồng,Full,5.0,10.713399328028869,106.7334881102459,"Dự án KDC Phú Mỹ, Đường D4, Phường Phú Mỹ, Quận 7, Hồ Chí Minh",Quận 7,Hồ Chí Minh
Nhà mặt phố,8.2,80.0,3,3,3,Sổ đỏ/ Sổ hồng,Đầy đủ,5.0,16.0674764001946,108.158991115628,"Đường Hòa Phú 3, Phường Hòa Minh, Liên Chiểu, Đà Nẵng",Liên Chiểu,Đà Nẵng
Nhà mặt phố,27.3,182.0,3,3,3,Sổ đỏ/ Sổ hồng,Cơ bản,7.2,16.0564037064967,108.208605153871,"Đường Nguyễn Tri Phương, Phường Hòa Cường Nam, Hải Châu, Đà Nẵng",Hải Châu,Đà Nẵng
Nhà mặt phố,15.0,83.9,5,5,5,Sổ đỏ/ Sổ hồng ( sử dụng chung),Đầy đủ,,10.7911190560193,106.645316033268,"Đường Bàu Cát, Phường 11, Tân Bình, Hồ Chí Minh",Tân Bình,Hồ Chí Minh
Nhà mặt phố,72.0,90.6,7,7,8,Sổ đỏ/ Sổ hồng,Đầy đủ,6.0,10.7790719282551,106.688313187892,"Đường Ngô Thời Nhiệm, Phường Võ Thị Sáu, Quận 3, Hồ Chí Minh",Quận 3,Hồ Chí Minh
Nhà mặt phố,35.0,140.0,8,8,5,Sổ đỏ/ Sổ hồng,,,10.7830975580899,106.658452016879,"Đường Đất Thánh, Phường 6, Tân Bình, Hồ Chí Minh",Tân Bình,Hồ Chí Minh
Nhà mặt phố,185.0,234.2,,,7,Sổ đỏ/ Sổ hồng,Đầy đủ,12.8,10.7826606605321,106.682625623365,"149C Trương Định, Phường 9, Quận 3, Hồ Chí Minh",Quận 3,Hồ Chí Minh
Nhà mặt phố,58.0,95.6,5,3,3,Sổ hồng,,3.95,10.7730730319848,106.676425113649,"Đường 3/2, Phường 12, Quận 10, Hồ Chí Minh",Quận 10,Hồ Chí Minh
Nhà mặt phố,14.86,109.0,8,8,3,Sổ đỏ/ Sổ hồng,Đầy đủ,4.5,10.8720796686573,106.620129204161,"Đường Nguyễn Ảnh Thủ, Phường Tân Chánh Hiệp, Quận 12, Hồ Chí Minh",Quận 12,Hồ Chí Minh
Nhà mặt phố,9.0,88.0,6,4,2,Sổ đỏ/ Sổ hồng,Cơ bản,4.0,10.7533506512279,106.588653676734,"Đường Trần Thanh Mại, Phường Tân Tạo, Bình Tân, Hồ Chí Minh",Bình Tân,Hồ Chí Minh
Nhà mặt phố,11.0,96.0,5,3,3,Sổ đỏ/ Sổ hồng,Đầy đủ,4.5,16.0393586735852,108.24014130716,"Đường Mỹ An 23, Phường Mỹ An, Ngũ Hành Sơn, Đà Nẵng",Ngũ Hành Sơn,Đà Nẵng
Nhà mặt phố,31.95,93.0,3,2,2,Sổ đỏ/ Sổ hồng,,,20.9980394222395,105.850355446281,"Phố Bạch Mai, Phường Bạch Mai, Hai Bà Trưng, Hà Nội",Hai Bà Trưng,Hà Nội
Nhà mặt phố,15.5,97.0,5,4,3,Sổ đỏ/ Sổ hồng,Đầy đủ,5.1,16.0299698514593,108.225584373469,"Đường Trương Chí Cương, Phường Hòa Cường Nam, Hải Châu, Đà Nẵng",Hải Châu,Đà Nẵng
Nhà mặt phố,5.8,105.0,5,5,1,Sổ đỏ/ Sổ hồng,,4.5,10.8404948562533,106.600282056387,"Đường Bà Điểm 12, Xã Bà Điểm, Hóc Môn, Hồ Chí Minh",Hóc Môn,Hồ Chí Minh
Nhà mặt phố,16.8,83.5,,,2,Sổ đỏ/ Sổ hồng,,,20.95614446966,105.76603874316,"Đường Quang Trung, Phường Phú La, Hà Đông, Hà Nội",Hà Đông,Hà Nội
Nhà mặt phố,32.9,84.0,6,,5,Sổ đỏ/ Sổ hồng sdc,Đầy đủ,,21.0191016350018,105.827864932958,"Phố Đông Các, Phường Ô Chợ Dừa, Đống Đa, Hà Nội",Đống Đa,Hà Nội
Nhà mặt phố,9.2,131.8,4,4,2,Sổ đỏ/ Sổ hồng,Đầy đủ,5.5,10.8651312849582,106.720085769478,"Đường Số 21, Phường Hiệp Bình Phước, Thủ Đức, Hồ Chí Minh",Thủ Đức,Hồ Chí Minh
Căn hộ chung cư,7.85,150.9,4,2,3,Sổ đỏ/ Sổ hồng,Đầy đủ,,20.97295892049906,105.76274121168058,"Dự án CT5 Văn Khê, Phường La Khê, Hà Đông, Hà Nội",Hà Đông,Hà Nội
Căn hộ chung cư,4.65,60.0,2,1,3,Sổ đỏ/ Sổ hồng,Full,,10.7666942437792,106.692526501875,"207, Đường Bùi Viện, Phường Phạm Ngũ Lão, Quận 1, Hồ Chí Minh",Quận 1,Hồ Chí Minh
Căn hộ chung cư,10.0,104.0,3,2,3,Sổ đỏ/ Sổ hồng,Nội thất cơ bản,,21.0843510430345,105.79116946956,"Dự án Sunshine City, Phường Đông Ngạc, Bắc Từ Liêm, Hà Nội",Bắc Từ Liêm,Hà Nội
Căn hộ chung cư,28.8,138.0,3,2,3,Sổ đỏ/ Sổ hồng,Nội thất cơ bản,,10.7828351513964,106.718965389546,"The River Thủ Thiêm, Đường Nguyễn Cơ Thạch, Phường An Khánh, Quận 2, Hồ Chí Minh",Quận 2,Hồ Chí Minh
Căn hộ chung cư,2.5,77.0,2,2,3,Sổ hồng sẵn,- Nhà cơ bản nội thất,,10.9721096960535,106.666743511725,"Dự án Compass One, Đường Hoàng Văn Thụ, Phường Chánh Nghĩa, Thủ Dầu Một, Bình Dương",Thủ Dầu Một,Bình Dương
Căn hộ chung cư,3.8,54.0,2,1,3,Sổ đỏ/ Sổ hồng,Đầy đủ,,10.84021945827751,106.83985307442656,"Dự án Masteri Centre Point, Phường Long Bình, Quận 9, Hồ Chí Minh",Quận 9,Hồ Chí Minh
Căn hộ chung cư,1.7,50.0,2,1,3,Sổ đỏ/ Sổ hồng,Chủ đầu tư,,10.907361014044296,106.80220345610138,"Dự án Honas Residence, Đường Mỹ Phước Tân Vạn, Phường Bình An, Dĩ An, Bình Dương",Dĩ An,Bình Dương
Căn hộ chung cư,6.15,84.2,3,2,3,Sổ đỏ/ Sổ hồng,Đầy đủ,,20.9941812458022,105.759580271052,"Startup Tower, 91, Đường Ngọc Đại, Phường Đại Mỗ, Nam Từ Liêm, Hà Nội",Nam Từ Liêm,Hà Nội
Căn hộ chung cư,10.5,117.0,3,2,3,Sổ đỏ/ Sổ hồng,Đầy đủ,,20.9854828053491,105.839057862654,"Imperial Plaza, 360, Đường Giải Phóng, Phường Phương Liệt, Thanh Xuân, Hà Nội",Thanh Xuân,Hà Nội
Căn hộ chung cư,7.0,103.0,,,3,Sổ đỏ/ Sổ hồng,"Nội thất tốt, full đồ Bosch nội địa (bếp từ, hút mùi, máy giặt, lò nướng... )",,10.8388284003835,106.839545525304,"Dự án Lumiere Boulevard, Đường D1, Phường Long Bình, Quận 9, Hồ Chí Minh",Quận 9,Hồ Chí Minh
Căn hộ chung cư,3.4,59.0,2,2,3,HĐMB,Cơ bản,,10.8360824584961,106.847915649414,"Dự án Glory Heights - Vinhomes Grand Park, Đường Nguyễn Xiển, Phường Long Bình, Quận 9, Hồ Chí Minh",Quận 9,Hồ Chí Minh
Căn hộ chung cư,3.5,69.0,2,2,3,Sổ đỏ/ Sổ hồng ( sử dụng chung),,,10.8429779703094,106.843074753826,"Dự án The Origami, Đường Phước Thiện, Phường Long Bình, Quận 9, Hồ Chí Minh",Quận 9,Hồ Chí Minh
Căn hộ chung cư,3.4,54.0,1,1,3,Hợp đồng mua bán,,,10.843637445020914,106.84530460402289,"Dự án The Beverly - Vinhomes Grand Park, Phường Long Bình, Quận 9, Hồ Chí Minh",Quận 9,Hồ Chí Minh
Căn hộ chung cư,2.65,51.7,1,1,3,Sổ đỏ/ Sổ hồng,Đầy đủ,,20.846206082698146,106.70730490340884,"Dự án Diamond Crown Hải Phòng, Đường Lê Hồng Phong, Phường Đằng Giang, Ngô Quyền, Hải Phòng",Ngô Quyền,Hải Phòng
Căn hộ chung cư,8.5,109.0,2,2,3,Sổ đỏ/ Sổ hồng,Đầy đủ,,21.014907584068244,105.72574835433788,"Dự án Mailand Hanoi City, Đường Đại lộ Thăng Long, Xã An Khánh, Hoài Đức, Hà Nội",Hoài Đức,Hà Nội
Căn hộ chung cư,2.5,33.85,1,1,3,Sổ hồng đầy đủ,,,10.7640871626809,106.692018087454,"247, Đường Trần Hưng Đạo, Phường Cô Giang, Quận 1, Hồ Chí Minh",Quận 1,Hồ Chí Minh
Căn hộ chung cư,4.4,41.9,1,1,3,Sổ đỏ/ Sổ hồng,Đầy đủ,,21.006203071783208,105.7370826647267,"Dự án Masteri West Heights, Phường Tây Mỗ, Nam Từ Liêm, Hà Nội",Nam Từ Liêm,Hà Nội
Căn hộ chung cư,32.0,132.0,3,2,3,Sổ đỏ/ Sổ hồng,Đầy đủ,,10.78234368574075,106.71887720753443,"Dự án The River Thủ Thiêm, Đường Trần Bạch Đằng, Phường An Khánh, Quận 2, Hồ Chí Minh",Quận 2,Hồ Chí Minh
Căn hộ chung cư,11.8,102.0,3,2,3,Sổ đỏ/ Sổ hồng,Đầy đủ,,10.776079667710778,106.66178627389635,"Kingdom 101, 334, Đường Tô Hiến Thành, Phường 14, Quận 10, Hồ Chí Minh",Quận 10,Hồ Chí Minh
Căn hộ chung cư,4.3,42.0,1,1,3,Sổ đỏ/ Sổ hồng,Nội thất đẹp: Bàn giao như ảnh,,20.9945308991047,105.950940791085,"Dự án Masteri Water Front, Đường Quốc Lộ 5B, Xã Đa Tốn, Gia Lâm, Hà Nội",Gia Lâm,Hà Nội
Nhà riêng,4.85,56.0,2,2,2,Sổ đỏ/ Sổ hồng,Không nội thất,4.0,10.7925588892134,106.591279438212,"Đường Số 8, Phường Bình Hưng Hòa B, Bình Tân, Hồ Chí Minh",Bình Tân,Hồ Chí Minh
Nhà riêng,2.99,62.0,4,2,2,Sổ đỏ/ Sổ hồng,Đầy đủ,7.7,10.9140656200456,106.827137957696,"Đường Bùi Hữu Nghĩa, Phường Tân Vạn, Thành phố Biên Hòa, Đồng Nai",Biên Hòa,Đồng Nai
Nhà riêng,7.5,200.0,2,2,1,Sổ đỏ/ Sổ hồng,Cơ bản,11.38,10.8869057498631,106.590700555,"Đường Lý Thường Kiệt, Thị trấn Hóc Môn, Hóc Môn, Hồ Chí Minh",Hóc Môn,Hồ Chí Minh
Nhà riêng,7.0,42.5,2,2,2,Sổ đỏ/ Sổ hồng,Cơ bản,2.5,10.791228211951,106.685282524222,"Đường Lý Chính Thắng, Phường Võ Thị Sáu, Quận 3, Hồ Chí Minh",Quận 3,Hồ Chí Minh
Nhà riêng,9.8,64.0,4,5,4,Sổ đỏ/ Sổ hồng,Đầy đủ,4.0,10.7898302477065,106.621913921388,"Đường Tân Hương, Phường Tân Quý, Tân Phú, Hồ Chí Minh",Tân Phú,Hồ Chí Minh
Nhà riêng,5.25,54.0,2,2,2,Sổ đỏ/ Sổ hồng,Đầy đủ,4.2,10.8432227714803,106.796184469238,"Phường Tăng Nhơn Phú A, Thủ Đức, Hồ Chí Minh",Thủ Đức,Hồ Chí Minh
Nhà riêng,2.59,43.0,3,2,2,Sổ đỏ/ Sổ hồng,Cơ bản,,10.9603033645683,106.832306653065,"Đường Nguyễn Ái Quốc, Phường Tân Phong, Biên Hòa, Đồng Nai",Biên Hòa,Đồng Nai
Nhà riêng,11.0,102.3,7,7,2,Sổ đỏ/ Sổ hồng,Đầy đủ,4.4,10.8007743529985,106.643389522055,"74/36 Đường Núi Thành, Phường 13, Tân Bình, Hồ Chí Minh",Tân Bình,Hồ Chí Minh
Nhà riêng,7.85,160.0,2,1,4,Sổ riêng,,,10.8487683411815,106.723601124772,"Đường Số 10, Phường Hiệp Bình Phước, Thủ Đức, Hồ Chí Minh",Thủ Đức,Hồ Chí Minh
Nhà riêng,14.5,81.0,6,,4,Sổ đỏ,,4.0,10.7939945979025,106.681013973607,"Đường Huỳnh Văn Bánh, Phường 17, Phú Nhuận, Hồ Chí Minh",Phú Nhuận,Hồ Chí Minh
Nhà riêng,15.8,60.0,4,5,4,Sổ hồng riêng,,4.45,10.7627352532961,106.687064522679,"Đường Nguyễn Trãi, Phường Nguyễn Cư Trinh, Quận 1, Hồ Chí Minh",Quận 1,Hồ Chí Minh
Nhà riêng,11.6,50.0,5,5,4,Sổ đỏ/ Sổ hồng,Đầy đủ,,21.016302140294,105.832976181922,"Đường Đê La Thành, Phường Giảng Võ, Ba Đình, Hà Nội",Ba Đình,Hà Nội
Nhà riêng,5.6,73.0,4,2,2,Sổ đỏ/ Sổ hồng,Đầy đủ,4.6,10.8489016538816,106.693067918461,"Đường Vườn Lài, Phường An Phú Đông, Quận 12, Hồ Chí Minh",Quận 12,Hồ Chí Minh
Nhà riêng,12.8,94.0,4,5,3,Sổ đỏ/ Sổ hồng,,5.8,10.8541748992743,106.762288371958,"Phường Linh Chiểu, Thủ Đức, Hồ Chí Minh",Thủ Đức,Hồ Chí Minh
Nhà riêng,9.5,68.6,4,5,4,Sổ đỏ/ Sổ hồng,Đầy đủ,4.25,10.7933459843538,106.642560706601,"Đường Nguyễn Hồng Đào, Phường 14, Tân Bình, Hồ Chí Minh",Tân Bình,Hồ Chí Minh
Nhà riêng,4.35,57.0,3,3,2,Sổ đỏ/ Sổ hồng,Đầy đủ,4.0,10.8948094102735,106.668488775997,"Đường Thạnh Xuân 52, Phường Thạnh Xuân, Quận 12, Hồ Chí Minh",Quận 12,Hồ Chí Minh
Nhà riêng,22.4,86.0,6,5,5,Sổ đỏ/ Sổ hồng,,4.6,10.7885572860078,106.669592541675,"Đường Trường Sa, Phường 13, Phú Nhuận, Hồ Chí Minh",Phú Nhuận,Hồ Chí Minh
Nhà riêng,3.6,64.0,2,2,2,Sổ đỏ/ Sổ hồng,Cơ bản,5.3,10.9610446064257,106.843348610182,"Đường Dương Tử Giang, Phường Tân Mai, Biên Hòa, Đồng Nai",Biên Hòa,Đồng Nai
Nhà riêng,21.0,64.0,7,7,6,Sổ đỏ/ Sổ hồng,Đầy đủ,4.1,10.7935865646983,106.688248054799,"Đường Trần Quý Khoách, Phường Tân Định, Quận 1, Hồ Chí Minh",Quận 1,Hồ Chí Minh
Nhà riêng,14.0,100.0,5,5,3,Sổ đỏ/ Sổ hồng,,,16.0862760225263,108.218010384589,"Đường 3/2, Phường Thuận Phước, Hải Châu, Đà Nẵng",Hải Châu,Đà Nẵng
Biệt thự,40.617,278.2,,,3,Sổ đỏ/ Sổ hồng,,12.0,21.015301166520192,105.72455039807822,"Dự án Mailand Hanoi City, Đường Đại lộ Thăng Long, Xã Song Phương, Hoài Đức, Hà Nội",Hoài Đức,Hà Nội
Biệt thự,7.5,80.0,4,5,3,Sổ đỏ/ Sổ hồng,Đầy đủ,,10.6782228155693,106.753471001404,"Dự án Green Riverside, Đường Huỳnh Tấn Phát, Xã Phú Xuân, Nhà Bè, Hồ Chí Minh",Nhà Bè,Hồ Chí Minh
Biệt thự,8.9,85.9,4,5,3,Sổ đỏ/ Sổ hồng,Đầy đủ,,10.678051826797123,106.75390301738769,"Dự án Green Riverside, Đường Huỳnh Tấn Phát, Xã Phú Xuân, Nhà Bè, Hồ Chí Minh",Nhà Bè,Hồ Chí Minh
Biệt thự,7.5,80.7,4,5,4,Sổ đỏ/ Sổ hồng,Đầy đủ,6.5,10.67860055127,106.75362525533,"Dự án Green Riverside, Đường Huỳnh Tấn Phát, Xã Phú Xuân, Nhà Bè, Hồ Chí Minh",Nhà Bè,Hồ Chí Minh
Biệt thự,18.5,106.0,,,4,Sổ đỏ/ Sổ hồng,Đầy đủ,6.0,20.994420490332004,105.7613592997877,"Dự án TIG Đại Mỗ, Phường Đại Mỗ, Nam Từ Liêm, Hà Nội",Nam Từ Liêm,Hà Nội
Biệt thự,17.5,180.0,4,5,4,Sổ đỏ/ Sổ hồng,Đầy đủ,10.0,10.3892347367237,107.133823420776,"Phường 11, Vũng Tàu, Bà Rịa Vũng Tàu",Vũng Tàu,Bà Rịa Vũng Tàu
Biệt thự,9.9,135.0,,,4,Sổ đỏ/ Sổ hồng,Nội thất đầy đủ,9.0,21.0776744873896,105.97138907218,"Dự án Centa City, Đường Hữu Nghị, Phường Phù Chẩn, Từ Sơn, Bắc Ninh",Từ Sơn,Bắc Ninh
Biệt thự,140.0,1.337,2,5,1,Sổ đỏ/ Sổ hồng,Cơ bản,8.0,11.9335363093488,108.44096605367,"106, Đường Hà Huy Tập, Phường 3, Đà Lạt, Lâm Đồng",Đà Lạt,Lâm Đồng
Biệt thự,7.39,80.5,4,5,3,Sổ đỏ/ Sổ hồng,Đầy đủ,6.2,10.678519952158,106.753694410114,"Đường Huỳnh Tấn Phát, Xã Phú Xuân, Nhà Bè, Hồ Chí Minh",Nhà Bè,Hồ Chí Minh
Biệt thự,14.5,84.0,5,5,6,Sổ đỏ/ Sổ hồng ( sử dụng chung),,7.0,10.8388423749495,106.830276332328,"Dự án The Manhattan, Phường Long Thạnh Mỹ, Quận 9, Hồ Chí Minh",Quận 9,Hồ Chí Minh
Biệt thự,8.8,50.0,5,,4,Sổ đỏ/ Sổ hồng,,,10.853170957936571,106.65168819897958,"Dự án Unik Home, Phố 59, Phường 14, Gò Vấp, Hồ Chí Minh",Gò Vấp,Hồ Chí Minh
Biệt thự,65.0,140.0,5,5,4,Sổ đỏ/ Sổ hồng,,7.0,21.0778166110968,105.810171717017,"Kita Capital Ciputra, Đường Võ Chí Công, Phường Phú Thượng, Tây Hồ, Hà Nội",Tây Hồ,Hà Nội
Biệt thự,7.9,100.0,5,,3,Sổ đỏ/ Sổ hồng,,5.5,15.9048201789871,108.347536268038,"Đường Mẹ Thứ, Phường Cẩm An, Hội An, Quảng Nam",Hội An,Quảng Nam
Biệt thự,13.85,143.7,,,4,Sổ đỏ/ Sổ hồng,,7.0,21.1165526903552,105.977095546137,"Dự án KĐT Mạnh Đức, Đường Lý Thánh Tông, Phường Tân Hồng, Từ Sơn, Bắc Ninh",Từ Sơn,Bắc Ninh
Biệt thự,125.0,390.0,5,,3,Sổ đỏ/ Sổ hồng,Đầy đủ,20.0,21.0154760533882,105.72458394613,"Mailand Hanoi City, Đại lộ Thăng Long, An Khánh, Hoài Đức, Hà Nội",Hoài Đức,Hà Nội
Biệt thự,13.6,158.0,5,,4,Sổ đỏ/ Sổ hồng,Nội thất cao cấp,,10.8045991801147,106.627949710555,"Đường Sơn Kỳ, Phường Sơn Kỳ, Tân Phú, Hồ Chí Minh",Tân Phú,Hồ Chí Minh
Biệt thự,45.5,227.5,,,3,Sổ đỏ/ Sổ hồng,,,20.9821858092061,105.756418545748,"Dự án An Vượng Villa, Đường Tố Hữu, Phường Dương Nội, Hà Đông, Hà Nội",Hà Đông,Hà Nội
Biệt thự,14.5,150.0,,,4,Sổ đỏ/ Sổ hồng,,7.5,20.845900050895356,106.71824693334992,"Dự án Vườn Hồng, Đường Vườn Hồng, Phường Đằng Hải, Hải An, Hải Phòng",Hải An,Hải Phòng
Biệt thự,120.0,,18,20,4,Sổ đỏ/ Sổ hồng,Đầy đủ,15.8,11.9365634010668,108.449753606666,"Đường Khởi Nghĩa Bắc Sơn, Phường 10, Đà Lạt, Lâm Đồng",Đà Lạt,Lâm Đồng
Biệt thự,36.5,126.0,,,5,Có sổ CĐT,,,10.7784404364615,106.746685353716,"Dự án Saigon Mystery Villas, Phường Bình Trưng Tây, Quận 2, Hồ Chí Minh",Quận 2,Hồ Chí Minh
Nhà mặt phố,9.0,88.0,6,4,2,Sổ đỏ/ Sổ hồng,Cơ bản,4.0,10.7533506512279,106.588653676734,"Đường Trần Thanh Mại, Phường Tân Tạo, Bình Tân, Hồ Chí Minh",Bình Tân,Hồ Chí Minh
Nhà mặt phố,11.0,96.0,5,3,3,Sổ đỏ/ Sổ hồng,Đầy đủ,4.5,16.0393586735852,108.24014130716,"Đường Mỹ An 23, Phường Mỹ An, Ngũ Hành Sơn, Đà Nẵng",Ngũ Hành Sơn,Đà Nẵng
Nhà mặt phố,31.95,93.0,3,2,2,Sổ đỏ/ Sổ hồng,,,20.9980394222395,105.850355446281,"Phố Bạch Mai, Phường Bạch Mai, Hai Bà Trưng, Hà Nội",Hai Bà Trưng,Hà Nội
Nhà mặt phố,15.5,97.0,5,4,3,Sổ đỏ/ Sổ hồng,Đầy đủ,5.1,16.0299698514593,108.225584373469,"Đường Trương Chí Cương, Phường Hòa Cường Nam, Hải Châu, Đà Nẵng",Hải Châu,Đà Nẵng
Nhà mặt phố,5.8,105.0,5,5,1,Sổ đỏ/ Sổ hồng,,4.5,10.8404948562533,106.600282056387,"Đường Bà Điểm 12, Xã Bà Điểm, Hóc Môn, Hồ Chí Minh",Hóc Môn,Hồ Chí Minh
Nhà mặt phố,16.8,83.5,,,2,Sổ đỏ/ Sổ hồng,,,20.95614446966,105.76603874316,"Đường Quang Trung, Phường Phú La, Hà Đông, Hà Nội",Hà Đông,Hà Nội
Nhà mặt phố,32.9,84.0,6,,5,Sổ đỏ/ Sổ hồng sdc,Đầy đủ,,21.0191016350018,105.827864932958,"Phố Đông Các, Phường Ô Chợ Dừa, Đống Đa, Hà Nội",Đống Đa,Hà Nội
Nhà mặt phố,9.2,131.8,4,4,2,Sổ đỏ/ Sổ hồng,Đầy đủ,5.5,10.8651312849582,106.720085769478,"Đường Số 21, Phường Hiệp Bình Phước, Thủ Đức, Hồ Chí Minh",Thủ Đức,Hồ Chí Minh
Nhà mặt phố,11.5,57.6,4,4,4,Sổ đỏ/ Sổ hồng,Đầy đủ,4.35,10.791851824542,106.648212605121,"Đường Sơn Hưng, Phường 12, Tân Bình, Hồ Chí Minh",Tân Bình,Hồ Chí Minh
Nhà mặt phố,24.8,63.3,6,7,5,Sổ đỏ/ Sổ hồng,,4.3,10.7630641301149,106.668118796038,"Đường Nguyễn Tri Phương, Phường 4, Quận 10, Hồ Chí Minh",Quận 10,Hồ Chí Minh
Nhà mặt phố,32.0,196.4,32,33,7,Sổ đỏ/ Sổ hồng,Đầy đủ,7.2,12.2864603282095,109.203525367801,"Đường Dương Hiến Quyền, Phường Vĩnh Hòa, Nha Trang, Khánh Hòa",Nha Trang,Khánh Hòa
Nhà mặt phố,13.3,100.0,6,8,4,Sổ đỏ/ Sổ hồng,,5.0,12.2883303275641,109.198017018205,"Đường Điện Biên Phủ, Phường Vĩnh Hòa, Nha Trang, Khánh Hòa",Nha Trang,Khánh Hòa
Nhà mặt phố,12.5,90.0,4,4,3,Sổ đỏ/ Sổ hồng,Không nội thất,,16.0409828439009,108.216290087719,"Đường Ỷ Lan Nguyên Phi, Phường Hòa Cường Bắc, Hải Châu, Đà Nẵng",Hải Châu,Đà Nẵng
Nhà mặt phố,8.8,67.0,5,7,5,Sổ đỏ/ Sổ hồng,,4.5,12.2156921209065,109.187403470278,"Khu đô thị VCN Phước Long 2, Số 38, Đường F1, Phường Phước Long, Nha Trang, Khánh Hòa",Nha Trang,Khánh Hòa
Nhà mặt phố,13.9,138.5,12,18,5,Sổ đỏ/ Sổ hồng,Đầy đủ,,10.8422950532992,106.784131473547,"Đường Số 1, Phường Tăng Nhơn Phú B, Quận 9, Hồ Chí Minh",Quận 9,Hồ Chí Minh
Nhà mặt phố,75.5,279.2,,,4,Sổ đỏ/ Sổ hồng,,,10.7902281543446,106.732451936404,"Đường Số 12, Phường An Khánh, Quận 2, Hồ Chí Minh",Quận 2,Hồ Chí Minh
Nhà mặt phố,15.3,56.8,5,6,5,Sổ đỏ/ Sổ hồng,Cơ bản,,10.795393327584,106.677339777732,"Đường Nguyễn Đình Chính, Phường 15, Phú Nhuận, Hồ Chí Minh",Phú Nhuận,Hồ Chí Minh
Nhà mặt phố,80.0,450.0,,,4,Sổ đỏ/ Sổ hồng,,,21.0743414503634,105.823895458327,"Đường Âu Cơ, Phường Nhật Tân, Tây Hồ, Hà Nội",Tây Hồ,Hà Nội
Nhà mặt phố,23.3,55.3,5,4,5,Sổ đỏ/ Sổ hồng,Đầy đủ,4.0,10.7927114888504,106.688788200376,"22, Phố Đặng Dung, Phường Tân Định, Quận 1, Hồ Chí Minh",Quận 1,Hồ Chí Minh
Nhà mặt phố,13.2,90.0,4,3,2,Sổ đỏ/ sổ hồng,,4.0,10.8249310060938,106.719502214631,"Đường Số 18, Phường Hiệp Bình Chánh, Thủ Đức, Hồ Chí Minh",Thủ Đức,Hồ Chí Minh
Căn hộ chung cư,4.4,41.9,1,1,3,Sổ đỏ/ Sổ hồng,Đầy đủ,,21.006203071783208,105.7370826647267,"Dự án Masteri West Heights, Phường Tây Mỗ, Nam Từ Liêm, Hà Nội",Nam Từ Liêm,Hà Nội
Căn hộ chung cư,32.0,132.0,3,2,3,Sổ đỏ/ Sổ hồng,Đầy đủ,,10.78234368574075,106.71887720753443,"Dự án The River Thủ Thiêm, Đường Trần Bạch Đằng, Phường An Khánh, Quận 2, Hồ Chí Minh",Quận 2,Hồ Chí Minh
Căn hộ chung cư,11.8,102.0,3,2,3,Sổ đỏ/ Sổ hồng,Đầy đủ,,10.776079667710778,106.66178627389635,"Kingdom 101, 334, Đường Tô Hiến Thành, Phường 14, Quận 10, Hồ Chí Minh",Quận 10,Hồ Chí Minh
Căn hộ chung cư,4.3,42.0,1,1,3,Sổ đỏ/ Sổ hồng,Nội thất đẹp: Bàn giao như ảnh,,20.9945308991047,105.950940791085,"Dự án Masteri Water Front, Đường Quốc Lộ 5B, Xã Đa Tốn, Gia Lâm, Hà Nội",Gia Lâm,Hà Nội
Căn hộ chung cư,1.868,72.42,2,2,3,Sổ đỏ/ Sổ hồng,Cơ bản,,21.57589208687253,105.8139363347391,"Dự án Tecco Elite City, Đường Quang Trung, Phường Thịnh Đán, Thái Nguyên, Thái Nguyên",Thái Nguyên,Thái Nguyên
Căn hộ chung cư,6.8,86.4,2,2,3,Sổ đỏ/ Sổ hồng,Full,,20.97426418075044,105.75898521440764,"Dự án HPC Landmark 105, Phường La Khê, Hà Đông, Hà Nội",Hà Đông,Hà Nội
Căn hộ chung cư,2.75,48.0,1,1,3,Sổ đỏ/ Sổ hồng,Không nội thất,,10.7452254567238,106.626508139913,"An Phú Apartment, Đường Hậu Giang, Phường 11, Quận 6, Hồ Chí Minh",Quận 6,Hồ Chí Minh
Căn hộ chung cư,9.0,127.4,3,2,3,Sổ đỏ/ Sổ hồng,Đầy đủ,,21.0198287416471,105.780716453103,"Dự án B.I.G Tower, Đường Phạm Hùng, Phường Mỹ Đình 2, Nam Từ Liêm, Hà Nội",Nam Từ Liêm,Hà Nội
Căn hộ chung cư,1.5,72.0,2,2,3,Sổ đỏ/ Sổ hồng,Không nội thất,,21.576249053510512,105.81335750542247,"Dự án Tecco Elite City, Đường Quang Trung, Phường Thịnh Đán, Thái Nguyên, Thái Nguyên",Thái Nguyên,Thái Nguyên
Căn hộ chung cư,45.0,201.0,4,3,3,Sổ đỏ/ Sổ hồng,Bàn giao thô,,10.78252842232922,106.71929805645335,"Dự án The River Thủ Thiêm, Đường Trần Bạch Đằng, Phường An Khánh, Quận 2, Hồ Chí Minh",Quận 2,Hồ Chí Minh
Căn hộ chung cư,4.48,45.5,,,3,Sổ đỏ/ Sổ hồng,Đầy đủ,,20.970218893019275,105.87785758991164,"Dự án The Two Residence - Gamuda Garden, Phường Trần Phú, Hoàng Mai, Hà Nội",Hoàng Mai,Hà Nội
Căn hộ chung cư,11.0,73.4,2,2,3,Sổ đỏ/ Sổ hồng,Đầy đủ,,21.006657638211287,105.79459672154144,"Dự án Vinhomes D'Capitale, Đường Trần Duy Hưng, Phường Trung Hòa, Cầu Giấy, Hà Nội",Cầu Giấy,Hà Nội
Căn hộ chung cư,10.0,121.2,3,2,3,Sổ đỏ/ Sổ hồng,Đầy đủ,,21.0142235995495,105.795486125933,"Dự án Trung Yên I, Đường Vũ Phạm Hàm, Phường Trung Hòa, Cầu Giấy, Hà Nội",Cầu Giấy,Hà Nội
Căn hộ chung cư,5.8,63.5,2,2,3,Sổ đỏ/ Sổ hồng,Nội thất đẹp: Bàn giao như ảnh,,20.994755102021067,105.949944210752,"Dự án Masteri Water Front, Đường Quốc Lộ 5B, Xã Đa Tốn, Gia Lâm, Hà Nội",Gia Lâm,Hà Nội
Căn hộ chung cư,2.85,71.0,2,2,3,HĐMB,Cơ bản,,10.8790426254272,106.699157714844,"Dự án The Rivana, Đường Quốc Lộ 13, Phường Vĩnh Phú, Thuận An, Bình Dương",Thuận An,Bình Dương
Căn hộ chung cư,4.5,54.6,2,1,3,Sổ đỏ/ Sổ hồng,Đầy đủ,,21.00615192018355,105.73655847476708,"Dự án The Sapphire-Vinhomes Smart City, Phường Tây Mỗ, Nam Từ Liêm, Hà Nội",Nam Từ Liêm,Hà Nội
Căn hộ chung cư,2.72,59.0,2,2,3,Sổ đỏ/ Sổ hồng,Đầy đủ,,10.687736173746035,106.58579983927216,"Dự án Westgate, Đường Tân Túc, Thị trấn Tân Túc, Bình Chánh, Hồ Chí Minh",Bình Chánh,Hồ Chí Minh
Căn hộ chung cư,9.3,63.0,2,2,3,Sổ đỏ/ Sổ hồng,Đầy đủ,,21.00583687830706,105.79450641332284,"Dự án Vinhomes D'Capitale, Đường Trần Duy Hưng, Phường Trung Hòa, Cầu Giấy, Hà Nội",Cầu Giấy,Hà Nội
Căn hộ chung cư,7.5,95.0,3,2,3,Sổ đỏ/ Sổ hồng,Cơ bản,,10.79510165620962,106.73705933362707,"Dự án Chung cư Bộ Công An, Đường 3, Phường An Khánh, Quận 2, Hồ Chí Minh",Quận 2,Hồ Chí Minh
Căn hộ chung cư,28.0,139.0,3,2,3,Sổ đỏ/ Sổ hồng,Đầy đủ,,10.782193357614588,106.71959192524558,"Dự án The River Thủ Thiêm, Đường Trần Bạch Đằng, Phường Thủ Thiêm, Quận 2, Hồ Chí Minh",Quận 2,Hồ Chí Minh
Nhà riêng,15.8,126.0,4,5,3,Sổ đỏ/ Sổ hồng,Full nội thất cao cấp,20.0,10.8083175486578,106.631062201179,"Đường Nguyễn Hữu Dật, Phường Tây Thạnh, Tân Phú, Hồ Chí Minh",Tân Phú,Hồ Chí Minh
Nhà riêng,12.7,49.2,4,4,5,Sổ đỏ/ Sổ hồng,Đầy đủ,4.0,10.7897952935885,106.646475689733,"Đường Phạm Phú Thứ, Phường 11, Tân Bình, Hồ Chí Minh",Tân Bình,Hồ Chí Minh
Nhà riêng,4.65,40.0,2,2,2,Có sổ,,4.0,10.7825738160859,106.608920679999,"Phường Bình Hưng Hòa A, Bình Tân, Hồ Chí Minh",Bình Tân,Hồ Chí Minh
Nhà riêng,6.38,42.0,3,4,4,Sổ hồng,Đầy đủ,4.0,10.8387857999924,106.659380650823,"Phường 11, Gò Vấp, Hồ Chí Minh",Gò Vấp,Hồ Chí Minh
Nhà riêng,7.59,38.8,4,4,4,Sổ đỏ/ Sổ hồng,Cơ bản,4.0,10.8084196192258,106.687763455221,"Đường Hoàng Hoa Thám, Phường 6, Bình Thạnh, Hồ Chí Minh",Bình Thạnh,Hồ Chí Minh
Nhà riêng,5.28,103.0,4,4,3,Sổ đỏ/ Sổ hồng,Đầy đủ,4.0,10.7186089730423,106.630001851751,"Đường Mai Hắc Đế, Phường 15, Quận 8, Hồ Chí Minh",Quận 8,Hồ Chí Minh
Nhà riêng,22.0,105.0,,,3,Sổ đỏ/ Sổ hồng,,,10.807866681074,106.780018153034,"Đường 16, Phường An Phú, Quận 2, Hồ Chí Minh",Quận 2,Hồ Chí Minh
Nhà riêng,23.0,61.65,5,4,5,Sổ đỏ/ Sổ hồng,Cơ bản,4.9,10.7712683658995,106.690845702687,"Đường Lê Thị Riêng, Phường Bến Thành, Quận 1, Hồ Chí Minh",Quận 1,Hồ Chí Minh
Nhà riêng,7.9,38.3,3,2,2,Sổ đỏ/ Sổ hồng,,,10.7909924939313,106.656900490776,"Đường Cách Mạng Tháng Tám, Phường 7, Tân Bình, Hồ Chí Minh",Tân Bình,Hồ Chí Minh
Nhà riêng,5.7,20.6,2,2,3,Sổ đỏ/ Sổ hồng,Full,3.6,10.7606036522588,106.691339437989,"Đường Trần Đình Xu, Phường Cầu Kho, Quận 1, Hồ Chí Minh",Quận 1,Hồ Chí Minh
Nhà riêng,17.0,62.0,5,6,6,Sổ đỏ/ Sổ hồng,Đầy đủ,4.2,10.7881663554103,106.678271146878,"Đường Trần Quang Diệu, Phường 14, Quận 3, Hồ Chí Minh",Quận 3,Hồ Chí Minh
Nhà riêng,19.0,165.0,,,2,Sổ đỏ/ Sổ hồng,,5.1,10.8091175680295,106.690073946418,"Đường Lê Trực, Phường 7, Bình Thạnh, Hồ Chí Minh",Bình Thạnh,Hồ Chí Minh
Nhà riêng,18.5,60.0,6,6,4,Sổ đỏ/ Sổ hồng,Đầy đủ,4.0,10.788077235183,106.686015796125,"380/2A Nam Kỳ Khởi Nghĩa, Phường Võ Thị Sáu, Quận 3, Hồ Chí Minh",Quận 3,Hồ Chí Minh
Nhà riêng,15.6,118.0,,,4,Sổ đỏ/ Sổ hồng,,5.2,10.7940844002623,106.631836663682,"Đường Trương Vĩnh Ký, Phường Tân Sơn Nhì, Tân Phú, Hồ Chí Minh",Tân Phú,Hồ Chí Minh
Nhà riêng,10.99,82.7,10,10,5,Sổ đỏ/ Sổ hồng,,5.0,10.8426317725166,106.643099043376,"Đường Quang Trung, Phường 14, Gò Vấp, Hồ Chí Minh",Gò Vấp,Hồ Chí Minh
Nhà riêng,6.99,63.7,4,5,3,Sổ đỏ/ Sổ hồng,Đầy đủ,4.0,10.684678717582646,106.74670733798862,"Dự án Sài Gòn Mới, Đường Huỳnh Tấn Phát, Thị trấn Nhà Bè, Nhà Bè, Hồ Chí Minh",Nhà Bè,Hồ Chí Minh
Nhà riêng,8.8,71.0,4,3,3,Sổ đỏ/ Sổ hồng,Cơ bản,4.0,10.7915898751819,106.627581607109,"Đường Đô Đốc Long, Phường Tân Quý, Tân Phú, Hồ Chí Minh",Tân Phú,Hồ Chí Minh
Nhà riêng,6.69,92.0,12,5,4,Sổ đỏ/ Sổ hồng,Đầy đủ,5.8,10.8634579689499,106.699782297244,"Đường An Phú Đông 25, Phường An Phú Đông, Quận 12, Hồ Chí Minh",Quận 12,Hồ Chí Minh
Nhà riêng,9.45,80.0,5,4,4,Sổ đỏ/ Sổ hồng,Đầy đủ,3.5,10.8467055050238,106.65142953723,"Đường Số 3, Phường 9, Gò Vấp, Hồ Chí Minh",Gò Vấp,Hồ Chí Minh
Nhà riêng,4.8,48.0,2,,2,Sổ đỏ/ Sổ hồng,Cơ bản,4.0,10.7594866912774,106.599148895487,"Đường Lê Đình Cẩn, Phường Tân Tạo, Bình Tân, Hồ Chí Minh",Bình Tân,Hồ Chí Minh
Biệt thự,120.0,,18,20,4,Sổ đỏ/ Sổ hồng,Đầy đủ,15.8,11.9365634010668,108.449753606666,"Đường Khởi Nghĩa Bắc Sơn, Phường 10, Đà Lạt, Lâm Đồng",Đà Lạt,Lâm Đồng
Biệt thự,36.5,126.0,,,5,Có sổ CĐT,,,10.7784404364615,106.746685353716,"Dự án Saigon Mystery Villas, Phường Bình Trưng Tây, Quận 2, Hồ Chí Minh",Quận 2,Hồ Chí Minh
Biệt thự,16.8,153.0,5,6,5,Sổ đỏ/ Sổ hồng,Đầy đủ,7.0,10.7760018254101,106.610623689312,"Đường Lê Văn Quới, Phường Bình Hưng Hòa A, Bình Tân, Hồ Chí Minh",Bình Tân,Hồ Chí Minh
Biệt thự,31.4,142.0,,,4,Sổ đỏ/ Sổ hồng,,9.5,20.97904837389863,105.74233793014372,"Dự án Geleximco Lê Trọng Tấn, Đường Lê Trọng Tấn, Phường Dương Nội, Hà Đông, Hà Nội",Hà Đông,Hà Nội
Biệt thự,81.468,226.3,,,4,Sổ đỏ/ Sổ hồng,,15.0,21.0374179041816,105.76058141124,"Dự án Vinhomes Gardenia, Đường Hàm Nghi, Phường Cầu Diễn, Nam Từ Liêm, Hà Nội",Nam Từ Liêm,Hà Nội
Biệt thự,36.0,95.0,,,5,Sổ đỏ/ Sổ hồng,,5.0,10.802696319612284,106.77746506196752,"Dự án The Global City, Phường An Phú, Quận 2, Hồ Chí Minh",Quận 2,Hồ Chí Minh
Biệt thự,42.0,92.0,,,4,Sổ đỏ/ Sổ hồng,,7.5,21.0376584801095,105.80036897343,"118, Đường Nguyễn Khánh Toàn, Phường Quan Hoa, Cầu Giấy, Hà Nội",Cầu Giấy,Hà Nội
Biệt thự,45.0,594.6,5,6,4,Sổ đỏ/ Sổ hồng,Đầy đủ,18.0,11.9344858244087,108.464459871231,"Đường Hoàng Hoa Thám, Phường 10, Đà Lạt, Lâm Đồng",Đà Lạt,Lâm Đồng
Biệt thự,39.0,189.0,,,4,Sổ đỏ/ Sổ hồng,,,20.982066069787415,105.75557744110078,"Dự án An Vượng Villa, Đường Tố Hữu, Phường Dương Nội, Hà Đông, Hà Nội",Hà Đông,Hà Nội
Biệt thự,60.0,194.0,,,4,Sổ đỏ/ Sổ hồng,,,20.9741238577693,105.75454082036,"Dự án An Khang Villa, Đường Tố Hữu, Phường La Khê, Hà Đông, Hà Nội",Hà Đông,Hà Nội
Biệt thự,38.5,180.0,5,,4,Sổ đỏ/ Sổ hồng,Thô,,20.9820471705423,105.756078225564,"Dự án An Vượng Villa, Đường Tố Hữu, Phường Dương Nội, Hà Đông, Hà Nội",Hà Đông,Hà Nội
Biệt thự,38.0,189.0,,,4,Sổ đỏ/ Sổ hồng,,,20.98215500921892,105.755769671533,"Dự án An Vượng Villa, Đường Tố Hữu, Phường Dương Nội, Hà Đông, Hà Nội",Hà Đông,Hà Nội
Biệt thự,7.6,87.5,4,4,4,Sổ đỏ/ Sổ hồng,,5.0,10.396030194187857,107.14764440862186,"Dự án La Vida Residences, Đường 3/2, Phường 12, Vũng Tàu, Bà Rịa Vũng Tàu",Vũng Tàu,Bà Rịa Vũng Tàu
Biệt thự,13.807,144.0,3,3,3,Sổ đỏ/ Sổ hồng,Đầy đủ,8.0,10.6941612369869,106.653925472881,"KDC Gia Hòa, Xã Phong Phú, Bình Chánh, Hồ Chí Minh",Bình Chánh,Hồ Chí Minh
Biệt thự,10.8,81.1,3,5,4,Sổ đỏ/ Sổ hồng,Đầy đủ,5.0,10.6787225186845,106.754503973552,"Dự án Green Riverside, Đường Huỳnh Tấn Phát, Xã Phú Xuân, Nhà Bè, Hồ Chí Minh",Nhà Bè,Hồ Chí Minh
Biệt thự,38.0,308.0,5,7,3,Sổ đỏ/ Sổ hồng,Đầy đủ,14.0,11.945721159335172,108.44173500059648,"Dự án Golf Valley Đà Lạt, Đường Bùi Thị Xuân, Phường 2, Đà Lạt, Lâm Đồng",Đà Lạt,Lâm Đồng
Biệt thự,10.5,67.5,6,5,5,Sổ đỏ/ Sổ hồng,Không nội thất,4.5,20.9437331244516,105.979287028412,"Dự án Vinhomes Ocean Park 2, Xã Nghĩa Trụ, Văn Giang, Hưng Yên",Văn Giang,Hưng Yên
Biệt thự,7.5,48.0,6,5,5,Sổ đỏ/ Sổ hồng,Không nội thất,4.0,20.9434026030141,105.979868998654,"Vinhomes Ocean Park 2, Nghĩa Trụ, Văn Giang, Hưng Yên",Văn Giang,Hưng Yên
Biệt thự,17.5,127.5,5,4,4,Sổ đỏ/ Sổ hồng,Không nội thất,8.5,20.943404735550516,105.97987970737915,"Dự án Vinhomes Ocean Park 2, Xã Long Hưng, Văn Giang, Hưng Yên",Văn Giang,Hưng Yên
Biệt thự,9.75,63.0,6,4,5,Sổ đỏ/ Sổ hồng,Không nội thất,4.5,20.942848067239,105.979320417683,"Vinhomes Ocean Park 2, Long Hưng, Văn Giang, Hưng Yên",Văn Giang,Hưng Yên
Nhà mặt phố,5.8,105.0,5,5,1,Sổ đỏ/ Sổ hồng,,4.5,10.8404948562533,106.600282056387,"Đường Bà Điểm 12, Xã Bà Điểm, Hóc Môn, Hồ Chí Minh",Hóc Môn,Hồ Chí Minh
Nhà mặt phố,16.8,83.5,,,2,Sổ đỏ/ Sổ hồng,,,20.95614446966,105.76603874316,"Đường Quang Trung, Phường Phú La, Hà Đông, Hà Nội",Hà Đông,Hà Nội
Nhà mặt phố,32.9,84.0,6,,5,Sổ đỏ/ Sổ hồng sdc,Đầy đủ,,21.0191016350018,105.827864932958,"Phố Đông Các, Phường Ô Chợ Dừa, Đống Đa, Hà Nội",Đống Đa,Hà Nội
Nhà mặt phố,9.2,131.8,4,4,2,Sổ đỏ/ Sổ hồng,Đầy đủ,5.5,10.8651312849582,106.720085769478,"Đường Số 21, Phường Hiệp Bình Phước, Thủ Đức, Hồ Chí Minh",Thủ Đức,Hồ Chí Minh
Nhà mặt phố,11.5,57.6,4,4,4,Sổ đỏ/ Sổ hồng,Đầy đủ,4.35,10.791851824542,106.648212605121,"Đường Sơn Hưng, Phường 12, Tân Bình, Hồ Chí Minh",Tân Bình,Hồ Chí Minh
Nhà mặt phố,24.8,63.3,6,7,5,Sổ đỏ/ Sổ hồng,,4.3,10.7630641301149,106.668118796038,"Đường Nguyễn Tri Phương, Phường 4, Quận 10, Hồ Chí Minh",Quận 10,Hồ Chí Minh
Nhà mặt phố,32.0,196.4,32,33,7,Sổ đỏ/ Sổ hồng,Đầy đủ,7.2,12.2864603282095,109.203525367801,"Đường Dương Hiến Quyền, Phường Vĩnh Hòa, Nha Trang, Khánh Hòa",Nha Trang,Khánh Hòa
Nhà mặt phố,13.3,100.0,6,8,4,Sổ đỏ/ Sổ hồng,,5.0,12.2883303275641,109.198017018205,"Đường Điện Biên Phủ, Phường Vĩnh Hòa, Nha Trang, Khánh Hòa",Nha Trang,Khánh Hòa
Nhà mặt phố,12.5,90.0,4,4,3,Sổ đỏ/ Sổ hồng,Không nội thất,,16.0409828439009,108.216290087719,"Đường Ỷ Lan Nguyên Phi, Phường Hòa Cường Bắc, Hải Châu, Đà Nẵng",Hải Châu,Đà Nẵng
Nhà mặt phố,8.8,67.0,5,7,5,Sổ đỏ/ Sổ hồng,,4.5,12.2156921209065,109.187403470278,"Khu đô thị VCN Phước Long 2, Số 38, Đường F1, Phường Phước Long, Nha Trang, Khánh Hòa",Nha Trang,Khánh Hòa
Nhà mặt phố,13.9,138.5,12,18,5,Sổ đỏ/ Sổ hồng,Đầy đủ,,10.8422950532992,106.784131473547,"Đường Số 1, Phường Tăng Nhơn Phú B, Quận 9, Hồ Chí Minh",Quận 9,Hồ Chí Minh
Nhà mặt phố,75.5,279.2,,,4,Sổ đỏ/ Sổ hồng,,,10.7902281543446,106.732451936404,"Đường Số 12, Phường An Khánh, Quận 2, Hồ Chí Minh",Quận 2,Hồ Chí Minh
Nhà mặt phố,15.3,56.8,5,6,5,Sổ đỏ/ Sổ hồng,Cơ bản,,10.795393327584,106.677339777732,"Đường Nguyễn Đình Chính, Phường 15, Phú Nhuận, Hồ Chí Minh",Phú Nhuận,Hồ Chí Minh
Nhà mặt phố,80.0,450.0,,,4,Sổ đỏ/ Sổ hồng,,,21.0743414503634,105.823895458327,"Đường Âu Cơ, Phường Nhật Tân, Tây Hồ, Hà Nội",Tây Hồ,Hà Nội
Nhà mặt phố,23.3,55.3,5,4,5,Sổ đỏ/ Sổ hồng,Đầy đủ,4.0,10.7927114888504,106.688788200376,"22, Phố Đặng Dung, Phường Tân Định, Quận 1, Hồ Chí Minh",Quận 1,Hồ Chí Minh
Nhà mặt phố,13.2,90.0,4,3,2,Sổ đỏ/ sổ hồng,,4.0,10.8249310060938,106.719502214631,"Đường Số 18, Phường Hiệp Bình Chánh, Thủ Đức, Hồ Chí Minh",Thủ Đức,Hồ Chí Minh
Nhà mặt phố,15.99,76.75,4,5,4,Sổ đỏ/ Sổ hồng,Đầy đủ,4.0,10.7496104515256,106.716552086635,"Đường Số 4F, Phường Tân Thuận Tây, Quận 7, Hồ Chí Minh",Quận 7,Hồ Chí Minh
Nhà mặt phố,18.5,104.0,6,5,5,Sổ đỏ/ Sổ hồng,Đầy đủ,4.0,10.7377817014273,106.668503703878,"Đường Hoàng Kim Giao, Phường 5, Quận 8, Hồ Chí Minh",Quận 8,Hồ Chí Minh
Nhà mặt phố,52.0,99.0,8,3,4,Sổ đỏ/ Sổ hồng,,,10.75881866376,106.677675883255,"Đường An Dương Vương, Phường 3, Quận 5, Hồ Chí Minh",Quận 5,Hồ Chí Minh
Nhà mặt phố,2.45,100.0,2,2,2,Sổ đỏ/ Sổ hồng,Cơ bản,5.0,16.4947712542899,107.55490249894,"Đường Trần Văn Dư, Phường Hương Sơ, Huế, Thừa Thiên Huế",Huế,Thừa Thiên Huế
Căn hộ chung cư,4.5,54.6,2,1,3,Sổ đỏ/ Sổ hồng,Đầy đủ,,21.00615192018355,105.73655847476708,"Dự án The Sapphire-Vinhomes Smart City, Phường Tây Mỗ, Nam Từ Liêm, Hà Nội",Nam Từ Liêm,Hà Nội
Căn hộ chung cư,2.72,59.0,2,2,3,Sổ đỏ/ Sổ hồng,Đầy đủ,,10.687736173746035,106.58579983927216,"Dự án Westgate, Đường Tân Túc, Thị trấn Tân Túc, Bình Chánh, Hồ Chí Minh",Bình Chánh,Hồ Chí Minh
Căn hộ chung cư,9.3,63.0,2,2,3,Sổ đỏ/ Sổ hồng,Đầy đủ,,21.00583687830706,105.79450641332284,"Dự án Vinhomes D'Capitale, Đường Trần Duy Hưng, Phường Trung Hòa, Cầu Giấy, Hà Nội",Cầu Giấy,Hà Nội
Căn hộ chung cư,8.6,154.3,4,3,3,Sổ đỏ/ Sổ hồng,Cơ bản,,20.986148577009622,105.78676228919504,"Dự án Mulberry Lane, Phường Mỗ Lao, Hà Đông, Hà Nội",Hà Đông,Hà Nội
Căn hộ chung cư,5.65,64.1,2,2,3,Sổ đỏ/ Sổ hồng,Đầy đủ,,20.999853579568,105.738786377375,"Dự án Imperia Smart City, Đường Đại lộ Thăng Long, Phường Tây Mỗ, Nam Từ Liêm, Hà Nội",Nam Từ Liêm,Hà Nội
Căn hộ chung cư,3.7,60.0,2,1,3,Sổ đỏ/ Sổ hồng,Không nội thất,,10.762358716893518,106.67253059374444,"Dự án Chung cư Ngô Gia Tự, Đường Hòa Hảo, Phường 2, Quận 10, Hồ Chí Minh",Quận 10,Hồ Chí Minh
Căn hộ chung cư,3.5,52.0,2,1,3,Sổ đỏ/ Sổ hồng,Không nội thất,,10.762636004945328,106.67231665849636,"Dự án Chung cư Ngô Gia Tự, Phường 2, Quận 10, Hồ Chí Minh",Quận 10,Hồ Chí Minh
Căn hộ chung cư,1.55,32.0,1,1,3,Sổ đỏ/ Sổ hồng,Không nội thất,,10.7905574205614,106.642212166021,"Đường Bàu Cát 6, Phường 14, Tân Bình, Hồ Chí Minh",Tân Bình,Hồ Chí Minh
Căn hộ chung cư,1.75,21.2,1,1,3,Sổ đỏ/ Sổ hồng,Không nội thất,,10.7874113141086,106.698077928929,"1A - 1B, Đường Nguyễn Đình Chiểu, Phường Đa Kao, Quận 1, Hồ Chí Minh",Quận 1,Hồ Chí Minh
Căn hộ chung cư,1.6,62.0,2,2,3,HĐMB,Đầy đủ,,21.575610530919032,105.81398785176832,"Dự án Tecco Elite City, Đường Quang Trung, Phường Thịnh Đán, Thái Nguyên, Thái Nguyên",Thái Nguyên,Thái Nguyên
Căn hộ chung cư,2.2,82.0,3,2,3,Sổ đỏ/ Sổ hồng,,,21.5762666590135,105.813364811797,"Dự án Tecco Elite City, Đường Quang Trung, Phường Thịnh Đán, Thái Nguyên, Thái Nguyên",Thái Nguyên,Thái Nguyên
Căn hộ chung cư,3.9,43.1,1,1,3,Sổ đỏ/ Sổ hồng,Đầy đủ,,20.9939411796179,105.949790897111,"Dự án Masteri Water Front, Đường Quốc Lộ 5B, Xã Đa Tốn, Gia Lâm, Hà Nội",Gia Lâm,Hà Nội
Căn hộ chung cư,10.0,116.0,3,2,3,Sổ đỏ/ Sổ hồng,Đầy đủ,,21.0018227776088,105.806699312783,"Phường Nhân Chính, Thanh Xuân, Hà Nội",Thanh Xuân,Hà Nội
Căn hộ chung cư,7.25,73.8,3,2,3,Sổ đỏ/ Sổ hồng,Đầy đủ,,21.0058005041799,105.737684409745,"Dự án Masteri West Heights, Phường Tây Mỗ, Nam Từ Liêm, Hà Nội",Nam Từ Liêm,Hà Nội
Căn hộ chung cư,4.99,84.7,3,2,3,Sổ đỏ/ Sổ hồng,Để lại toàn bộ nội thất sang sịn mịn,,21.0615805520069,105.881962776364,"Đường Lý Sơn, Phường Bồ Đề, Long Biên, Hà Nội",Long Biên,Hà Nội
Căn hộ chung cư,6.1,64.7,2,2,3,Sổ đỏ/ Sổ hồng,Đầy đủ,,21.00530692871155,105.73851222682336,"Dự án The Tonkin - Vinhomes Smart City, Đường Đại lộ Thăng Long, Phường Tây Mỗ, Nam Từ Liêm, Hà Nội",Nam Từ Liêm,Hà Nội
Căn hộ chung cư,7.8,94.3,3,2,3,Sổ đỏ/ Sổ hồng,Đầy đủ,,21.0062585047179,105.73649272014,"Dự án The Sapphire-Vinhomes Smart City, Phường Tây Mỗ, Nam Từ Liêm, Hà Nội",Nam Từ Liêm,Hà Nội
Căn hộ chung cư,4.95,57.0,2,1,3,Sổ đỏ/ Sổ hồng,Đầy đủ,,21.0312869845564,105.774436283341,"Số 1, Đường Nguyễn Hoàng, Phường Mỹ Đình 2, Nam Từ Liêm, Hà Nội",Nam Từ Liêm,Hà Nội
Căn hộ chung cư,9.5,116.0,3,2,3,Sổ đỏ/ Sổ hồng,,,21.0039023572803,105.803342603137,"Đường Lê Văn Lương, Phường Nhân Chính, Thanh Xuân, Hà Nội",Thanh Xuân,Hà Nội
Căn hộ chung cư,4.65,54.5,2,1,3,Sổ đỏ/ Sổ hồng,Đầy đủ,,21.00676175684465,105.7456032965237,"Dự án The Miami, Phường Tây Mỗ, Nam Từ Liêm, Hà Nội",Nam Từ Liêm,Hà Nội
Nhà riêng,6.35,42.0,5,4,4,Sổ hồng riêng,Đầy đủ,,10.7558900776965,106.701195119278,"Đường Khánh Hội, Phường 4, Quận 4, Hồ Chí Minh",Quận 4,Hồ Chí Minh
Nhà riêng,20.0,85.0,,,3,Sổ đỏ/ Sổ hồng,Đầy đủ,4.5,10.7708661843131,106.686402776762,"Đường Nguyễn Thị Minh Khai, Phường 5, Quận 3, Hồ Chí Minh",Quận 3,Hồ Chí Minh
Nhà riêng,3.85,18.9,2,3,3,Sổ đỏ/ Sổ hồng,,3.1,10.784706414288,106.642006352724,"Đường Âu Cơ, Phường 11, Tân Bình, Hồ Chí Minh",Tân Bình,Hồ Chí Minh
Nhà riêng,5.7,72.9,4,3,3,Sổ đỏ/ Sổ hồng,Cơ bản,4.7,10.8356521459398,106.790221313148,"Đường 160, Phường Tăng Nhơn Phú A, Thủ Đức, Hồ Chí Minh",Thủ Đức,Hồ Chí Minh
Nhà riêng,11.7,72.0,3,3,2,Sổ đỏ/ Sổ hồng,Đầy đủ,4.0,10.8202889234618,106.704289109971,"Đường Nguyễn Xí, Phường 13, Bình Thạnh, Hồ Chí Minh",Bình Thạnh,Hồ Chí Minh
Nhà riêng,15.0,52.0,3,4,4,Sổ đỏ/ Sổ hồng,Đầy đủ,,10.7931816161484,106.687460658303,"Đường Nguyễn Văn Nguyễn, Phường Tân Định, Quận 1, Hồ Chí Minh",Quận 1,Hồ Chí Minh
Nhà riêng,9.5,42.0,2,4,4,Sổ đỏ/ Sổ hồng,Đầy đủ,3.6,21.0058323018179,105.816758886515,"Đường Láng, Phường Thịnh Quang, Đống Đa, Hà Nội",Đống Đa,Hà Nội
Nhà riêng,6.9,62.0,2,2,2,Sổ đỏ/ Sổ hồng,Cơ bản,4.5,10.837265433948,106.790263747056,"Đường 160, Phường Tăng Nhơn Phú A, Quận 9, Hồ Chí Minh",Quận 9,Hồ Chí Minh
Nhà riêng,9.79,53.2,5,6,5,Sổ đỏ/ Sổ hồng,Nội thất cao cấp hàng nhập EU,4.0,10.7998597672513,106.640982404346,"Đường Trường Chinh, Phường 14, Tân Bình, Hồ Chí Minh",Tân Bình,Hồ Chí Minh
Nhà riêng,10.5,49.0,2,2,2,Có sổ,,5.0,10.8078114673906,106.666544541588,"Phường 2, Tân Bình, Hồ Chí Minh",Tân Bình,Hồ Chí Minh
Nhà riêng,10.0,60.0,4,4,5,Sổ đỏ/ Sổ hồng,,,10.7907415059562,106.637436429084,"Đường Lũy Bán Bích, Phường Tân Thành, Tân Phú, Hồ Chí Minh",Tân Phú,Hồ Chí Minh
Nhà riêng,3.0,150.0,3,1,1,Sổ đỏ/ Sổ hồng,Không nội thất,7.5,12.2296676914271,109.108560146947,"Xã Diên Toàn, Diên Khánh, Khánh Hòa",Diên Khánh,Khánh Hòa
Nhà riêng,5.0,24.6,2,2,2,Sổ đỏ/ Sổ hồng,Cơ bản,,10.767120180351,106.692322421545,"Đường Bùi Viện, Phường Phạm Ngũ Lão, Quận 1, Hồ Chí Minh",Quận 1,Hồ Chí Minh
Nhà riêng,9.0,69.2,10,11,4,Sổ đỏ/ Sổ hồng,,,10.8389402647174,106.648664848962,"Đường Quang Trung, Phường 8, Gò Vấp, Hồ Chí Minh",Gò Vấp,Hồ Chí Minh
Nhà riêng,7.2,58.0,4,5,5,Sổ đỏ/ Sổ hồng,Đầy đủ,4.0,10.8792333459699,106.660854682675,"Đường Thạnh Xuân 25, Phường Thới An, Quận 12, Hồ Chí Minh",Quận 12,Hồ Chí Minh
Nhà riêng,12.9,61.7,4,5,4,Sổ hồng,,8.0,10.7150211395729,106.734034640135,"Đường Số 2, Phường Phú Mỹ, Quận 7, Hồ Chí Minh",Quận 7,Hồ Chí Minh
Nhà riêng,7.49,60.0,4,4,3,Sổ đỏ/ Sổ hồng,Đầy đủ,4.0,10.727511544219,106.733005591212,"Đường Huỳnh Tấn Phát, Phường Phú Thuận, Quận 7, Hồ Chí Minh",Quận 7,Hồ Chí Minh
Nhà riêng,6.5,42.0,4,3,5,Sổ đỏ/ Sổ hồng,Đầy đủ,4.5,10.7500775933424,106.679004274238,"Đường Hưng Phú, Phường 8, Quận 8, Hồ Chí Minh",Quận 8,Hồ Chí Minh
Nhà riêng,10.3,40.0,3,,5,Sổ đỏ/ Sổ hồng,Full,,10.8106043010544,106.701673571999,"Đường Chu Văn An, Phường 12, Bình Thạnh, Hồ Chí Minh",Bình Thạnh,Hồ Chí Minh
Nhà riêng,3.5,80.0,3,3,3,Sổ đỏ/ Sổ hồng,Đầy đủ,6.0,10.9594631109523,106.541696294386,"Đường Cây Da, Xã Tân Phú Trung, Củ Chi, Hồ Chí Minh",Củ Chi,Hồ Chí Minh
Biệt thự,71.0,180.0,4,4,3,Sổ đỏ/ Sổ hồng,Đầy đủ,9.0,21.07401205056151,105.8235451504642,"Dự án Ciputra Hà Nội, Phường Phú Thượng, Tây Hồ, Hà Nội",Tây Hồ,Hà Nội
Biệt thự,87.0,180.0,4,5,4,Sổ đỏ/ Sổ hồng,,9.0,21.0776442919991,105.810975049636,"Dự án Kita Capital Ciputra, Đường Võ Chí Công, Phường Phú Thượng, Tây Hồ, Hà Nội",Tây Hồ,Hà Nội
Biệt thự,85.0,180.0,4,4,5,Sổ đỏ/ Sổ hồng,,9.0,21.0771914734412,105.810116470248,"Dự án Kita Capital Ciputra, Đường Võ Chí Công, Phường Phú Thượng, Tây Hồ, Hà Nội",Tây Hồ,Hà Nội
Biệt thự,145.0,225.5,5,5,4,Sổ đỏ/ Sổ hồng,,33.0,21.0775134012573,105.811545408739,"Dự án Kita Capital Ciputra, Đường Võ Chí Công, Phường Phú Thượng, Tây Hồ, Hà Nội",Tây Hồ,Hà Nội
Biệt thự,9.0,63.0,,,4,Sổ đỏ/ Sổ hồng,,,20.943099525362,105.97904234196,"Dự án Vinhomes Ocean Park 2, Xã Nghĩa Trụ, Văn Giang, Hưng Yên",Văn Giang,Hưng Yên
Biệt thự,8.8,58.5,,,4,Sổ đỏ/ Sổ hồng,,4.0,20.9416932729422,105.955613881225,"Dự án The Empire - Vinhomes Ocean Park 2, Xã Nghĩa Trụ, Văn Giang, Hưng Yên",Văn Giang,Hưng Yên
Biệt thự,37.5,118.2,,,3,Sổ đỏ/ Sổ hồng,Đầy đủ,5.0,20.973114675169324,105.87450252372386,"Dự án Gamuda Gardens, Đường Pháp Vân, Phường Yên Sở, Hoàng Mai, Hà Nội",Hoàng Mai,Hà Nội
Biệt thự,2.3,100.0,3,3,3,Sổ đỏ/ Sổ hồng,Thô,5.0,11.317884738004526,106.633130307303,"Dự án Thăng Long Central City, Đường 612, Thị trấn Lai Uyên, Bàu Bàng, Bình Dương",Bàu Bàng,Bình Dương
Biệt thự,12.5,245.15,5,5,3,Hợp đồng mua bán,,12.0,21.35330094887767,105.74765600281744,"Dự án Thanh Xuân Valley, Xã Ngọc Thanh, Phúc Yên, Vĩnh Phúc",Phúc Yên,Vĩnh Phúc
Biệt thự,33.5,180.0,8,5,5,Sổ đỏ/ Sổ hồng,Không nội thất,9.0,20.9430007651007,105.980712491836,"Dự án Vinhomes Ocean Park 2, Đường Đảo Dừa 8, Xã Nghĩa Trụ, Văn Giang, Hưng Yên",Văn Giang,Hưng Yên
Biệt thự,16.5,70.0,,,5,Sổ đỏ/ Sổ hồng,Không nội thất,5.0,21.0017737361181,105.964372361993,"Dự án Vinhomes Ocean Park Gia Lâm, Đường Sao Biển 1, Xã Dương Xá, Gia Lâm, Hà Nội",Gia Lâm,Hà Nội
Biệt thự,17.5,120.0,,,5,HĐMB,,,20.9413013453479,105.957080291619,"Dự án Vinhomes Ocean Park 3, Xã Nghĩa Trụ, Văn Giang, Hưng Yên",Văn Giang,Hưng Yên
Biệt thự,9.0,103.6,,,4,Sổ đỏ/ Sổ hồng,Nhà thô,6.0,10.395609302403464,107.148004402143,"Dự án La Vida Residences, Đường 3/2, Phường 12, Vũng Tàu, Bà Rịa Vũng Tàu",Vũng Tàu,Bà Rịa Vũng Tàu
Biệt thự,9.99,240.0,,,3,HĐMB,,,10.641217820007,106.690729879171,"Dự án T&T Millennia City Long Hậu, Xã Long Hậu, Cần Giuộc, Long An",Cần Giuộc,Long An
Biệt thự,70.0,288.0,,,4,Sổ đỏ/ Sổ hồng,Không nội thất,16.0,21.001864633092,105.963480597182,"Dự án Vinhomes Ocean Park Gia Lâm, Xã Đa Tốn, Gia Lâm, Hà Nội",Gia Lâm,Hà Nội
Biệt thự,12.5,108.0,,,3,Sổ đỏ/ Sổ hồng,Full,6.0,10.7967054153262,106.792336826884,"Dự án Melosa Garden, Đường Vành Đai Trong, Phường Phú Hữu, Quận 9, Hồ Chí Minh",Quận 9,Hồ Chí Minh
Biệt thự,6.6,77.0,,,4,Hợp đồng mua bán,,5.0,10.396073579815178,107.14747168349128,"Dự án La Vida Residences, Đường 3/2, Phường 12, Vũng Tàu, Bà Rịa Vũng Tàu",Vũng Tàu,Bà Rịa Vũng Tàu
Biệt thự,10.8,70.0,6,4,5,Sổ đỏ/ Sổ hồng,,5.0,20.94370330454968,105.9801689191231,"Dự án Vinhomes Ocean Park 2, Đường San Hô 14, Xã Nghĩa Trụ, Văn Giang, Hưng Yên",Văn Giang,Hưng Yên
Biệt thự,5.0,103.0,4,4,3,Sổ đỏ/ Sổ hồng,Không nội thất,5.0,20.93089094740383,106.69931690493578,"Dự án Centa City Hải Phòng, Đường 359, Phường An Lư, Thủy Nguyên, Hải Phòng",Thủy Nguyên,Hải Phòng
Biệt thự,3.8,75.0,,,4,Sổ đỏ,,,20.929960300398143,106.69919132503644,"Dự án Centa City Hải Phòng, Đường 359, Phường An Lư, Thủy Nguyên, Hải Phòng",Thủy Nguyên,Hải Phòng
Nhà mặt phố,13.9,138.5,12,18,5,Sổ đỏ/ Sổ hồng,Đầy đủ,,10.8422950532992,106.784131473547,"Đường Số 1, Phường Tăng Nhơn Phú B, Quận 9, Hồ Chí Minh",Quận 9,Hồ Chí Minh
Nhà mặt phố,75.5,279.2,,,4,Sổ đỏ/ Sổ hồng,,,10.7902281543446,106.732451936404,"Đường Số 12, Phường An Khánh, Quận 2, Hồ Chí Minh",Quận 2,Hồ Chí Minh
Nhà mặt phố,15.3,56.8,5,6,5,Sổ đỏ/ Sổ hồng,Cơ bản,,10.795393327584,106.677339777732,"Đường Nguyễn Đình Chính, Phường 15, Phú Nhuận, Hồ Chí Minh",Phú Nhuận,Hồ Chí Minh
Nhà mặt phố,80.0,450.0,,,4,Sổ đỏ/ Sổ hồng,,,21.0743414503634,105.823895458327,"Đường Âu Cơ, Phường Nhật Tân, Tây Hồ, Hà Nội",Tây Hồ,Hà Nội
Nhà mặt phố,23.3,55.3,5,4,5,Sổ đỏ/ Sổ hồng,Đầy đủ,4.0,10.7927114888504,106.688788200376,"22, Phố Đặng Dung, Phường Tân Định, Quận 1, Hồ Chí Minh",Quận 1,Hồ Chí Minh
Nhà mặt phố,13.2,90.0,4,3,2,Sổ đỏ/ sổ hồng,,4.0,10.8249310060938,106.719502214631,"Đường Số 18, Phường Hiệp Bình Chánh, Thủ Đức, Hồ Chí Minh",Thủ Đức,Hồ Chí Minh
Nhà mặt phố,15.99,76.75,4,5,4,Sổ đỏ/ Sổ hồng,Đầy đủ,4.0,10.7496104515256,106.716552086635,"Đường Số 4F, Phường Tân Thuận Tây, Quận 7, Hồ Chí Minh",Quận 7,Hồ Chí Minh
Nhà mặt phố,18.5,104.0,6,5,5,Sổ đỏ/ Sổ hồng,Đầy đủ,4.0,10.7377817014273,106.668503703878,"Đường Hoàng Kim Giao, Phường 5, Quận 8, Hồ Chí Minh",Quận 8,Hồ Chí Minh
Nhà mặt phố,52.0,99.0,8,3,4,Sổ đỏ/ Sổ hồng,,,10.75881866376,106.677675883255,"Đường An Dương Vương, Phường 3, Quận 5, Hồ Chí Minh",Quận 5,Hồ Chí Minh
Nhà mặt phố,2.45,100.0,2,2,2,Sổ đỏ/ Sổ hồng,Cơ bản,5.0,16.4947712542899,107.55490249894,"Đường Trần Văn Dư, Phường Hương Sơ, Huế, Thừa Thiên Huế",Huế,Thừa Thiên Huế
Nhà mặt phố,74.0,141.0,5,5,3,Sổ đỏ/ Sổ hồng,Đầy đủ,6.0,10.7880342074198,106.676988863685,"390 Lê Văn Sỹ, Phường 14, Quận 3, Hồ Chí Minh",Quận 3,Hồ Chí Minh
Nhà mặt phố,56.0,170.0,,,3,Sổ đỏ/ Sổ hồng,,,10.7987523775265,106.737211988964,"Số 3, Đường Nguyễn Quý Cảnh, Phường An Khánh, Quận 2, Hồ Chí Minh",Quận 2,Hồ Chí Minh
Nhà mặt phố,20.5,119.0,4,4,4,Sổ đỏ/ Sổ hồng,Full nội thất cao cấp,,10.8411844070657,106.725352194518,"Phường Hiệp Bình Chánh, Thủ Đức, Hồ Chí Minh",Thủ Đức,Hồ Chí Minh
Nhà mặt phố,13.9,108.0,15,15,6,Sổ đỏ/ Sổ hồng,Đầy đủ,6.0,15.983900457223266,108.25230609801164,"Dự án FPT City Đà Nẵng, Đường Võ Chí Công, Phường Hòa Hải, Ngũ Hành Sơn, Đà Nẵng",Ngũ Hành Sơn,Đà Nẵng
Nhà mặt phố,8.2,96.4,3,4,3,Sổ hồng,,5.0,12.28696586756819,109.19357998699655,"Dự án Bắc Vĩnh Hải, Đường Võ Trường Toản, Phường Vĩnh Hòa, Nha Trang, Khánh Hòa",Nha Trang,Khánh Hòa
Nhà mặt phố,28.0,300.0,3,3,2,Sổ đỏ/ Sổ hồng,Cơ bản,23.02,11.9469513907573,108.454664685928,"Đường Yersin, Phường 9, Đà Lạt, Lâm Đồng",Đà Lạt,Lâm Đồng
Nhà mặt phố,57.9,93.2,5,5,3,Sổ đỏ/ Sổ hồng,Đầy đủ,7.66,10.7928775884053,106.680737659335,"12, Đường Nguyễn Văn Trỗi, Phường 15, Phú Nhuận, Hồ Chí Minh",Phú Nhuận,Hồ Chí Minh
Nhà mặt phố,17.5,80.0,4,4,4,Sổ đỏ/ Sổ hồng,"Nội thất đầy đủ (Sofa, bàn ăn, tủ bếp, bếp từ, giường, tủ áo, máy lạnh, nền sàn gỗ cao cấp, nhà mới và kiên cố)",4.0,10.7924130969951,106.740785245953,"Đường 34B, Phường An Phú, Quận 2, Hồ Chí Minh",Quận 2,Hồ Chí Minh
Nhà mặt phố,6.8,94.3,4,2,2,Sổ đỏ/ Sổ hồng,,10.0,10.8487844765164,106.631085969411,"Đường Đông Hưng Thuận 27, Phường Đông Hưng Thuận, Quận 12, Hồ Chí Minh",Quận 12,Hồ Chí Minh
Nhà mặt phố,10.2,121.0,3,2,2,Sổ đỏ/ Sổ hồng,,5.0,10.8414190768676,106.783908316127,"Đường Số 2, Phường Tăng Nhơn Phú B, Quận 9, Hồ Chí Minh",Quận 9,Hồ Chí Minh
Căn hộ chung cư,4.7,65.0,2,2,3,Sổ đỏ/ Sổ hồng,Đầy đủ,,10.714627870358196,106.73820716997244,"Dự án River Panorama, Đường Hoàng Quốc Việt, Phường Phú Thuận, Quận 7, Hồ Chí Minh",Quận 7,Hồ Chí Minh
Căn hộ chung cư,6.2,90.0,3,2,3,Sổ đỏ/ Sổ hồng,Đầy đủ,,10.7136681187519,106.737888304697,"Dự án River Panorama, Đường Hoàng Quốc Việt, Phường Phú Thuận, Quận 7, Hồ Chí Minh",Quận 7,Hồ Chí Minh
Căn hộ chung cư,10.55,134.0,3,2,3,Sổ đỏ/ Sổ hồng,Đầy đủ,,21.0150272712461,105.79697728468,"Dự án Trung Yên I, Đường Vũ Phạm Hàm, Phường Trung Hòa, Cầu Giấy, Hà Nội",Cầu Giấy,Hà Nội
Căn hộ chung cư,7.5,127.4,3,2,3,Sổ đỏ/ Sổ hồng,Đầy đủ,,20.966659046873964,105.77745774505058,"HUD3 Tower, 121 - 123, Đường Tô Hiệu, Phường Quang Trung, Hà Đông, Hà Nội",Hà Đông,Hà Nội
Căn hộ chung cư,3.1,53.67,1,1,3,HĐMb,Cơ bản,,10.7180150732141,106.741884858746,"Dự án Q7 Saigon Riverside, Đường Đào Trí, Phường Phú Thuận, Quận 7, Hồ Chí Minh",Quận 7,Hồ Chí Minh
Căn hộ chung cư,5.4,60.6,2,2,3,Sổ đỏ/ Sổ hồng,Đầy đủ,,21.005453310611145,105.73944359803146,"Dự án The Tonkin - Vinhomes Smart City, Phường Tây Mỗ, Nam Từ Liêm, Hà Nội",Nam Từ Liêm,Hà Nội
Căn hộ chung cư,6.18,60.5,2,2,3,Sổ đỏ/ Sổ hồng,Đầy đủ,,21.00645013541057,105.7363407502342,"Dự án Masteri West Heights, Phường Tây Mỗ, Nam Từ Liêm, Hà Nội",Nam Từ Liêm,Hà Nội
Căn hộ chung cư,4.5,54.6,2,1,3,Sổ đỏ/ Sổ hồng,Đầy đủ,,21.00615349459368,105.73703760782634,"Dự án The Sapphire-Vinhomes Smart City, Phường Tây Mỗ, Nam Từ Liêm, Hà Nội",Nam Từ Liêm,Hà Nội
Căn hộ chung cư,5.2,63.4,2,2,3,Sổ đỏ/ Sổ hồng,Đầy đủ,,21.0065845902596,105.736589323781,"Dự án The Sapphire-Vinhomes Smart City, Phường Tây Mỗ, Nam Từ Liêm, Hà Nội",Nam Từ Liêm,Hà Nội
Căn hộ chung cư,3.25,30.2,1,1,3,Sổ đỏ/ Sổ hồng,Đầy đủ,,21.00615479386322,105.73654342726816,"Dự án Masteri West Heights, Phường Tây Mỗ, Nam Từ Liêm, Hà Nội",Nam Từ Liêm,Hà Nội
Căn hộ chung cư,3.8,73.0,2,2,3,Sổ đỏ/ Sổ hồng (sử dụng chung),Cơ bản,,10.80100217734,106.822197226396,"Dự án MT Eastmark City, Phường Long Trường, Quận 9, Hồ Chí Minh",Quận 9,Hồ Chí Minh
Căn hộ chung cư,6.5,95.0,3,2,3,Sổ đỏ/ Sổ hồng,Đầy đủ,,20.9763909318273,105.824534060772,"Dự án X2 Đại Kim, Đường Trần Hòa, Phường Đại Kim, Hoàng Mai, Hà Nội",Hoàng Mai,Hà Nội
Căn hộ chung cư,4.95,99.9,3,3,3,Sổ đỏ/ Sổ hồng ( sử dụng chung),"Cơ bản tủ kệ bếp, khóa từ, máy nước nóng, TBVS, video call",,10.8010524039088,106.822531663643,"Dự án MT Eastmark City, Đường Vành Đai 3, Phường Long Trường, Quận 9, Hồ Chí Minh",Quận 9,Hồ Chí Minh
Căn hộ chung cư,7.2,73.0,2,2,3,Sổ đỏ/ Sổ hồng,Đầy đủ,,21.009466481474,105.836101342145,"Dự án B4 và B14 Kim Liên, Đường Phạm Ngọc Thạch, Phường Kim Liên, Đống Đa, Hà Nội",Đống Đa,Hà Nội
Căn hộ chung cư,3.1,93.5,3,3,3,Sổ đỏ/ Sổ hồng,Full,,10.9060007635795,106.74255115702,"Dự án Charm City, Đường ĐT 743, Phường Dĩ An, Dĩ An, Bình Dương",Dĩ An,Bình Dương
Căn hộ chung cư,3.6,69.9,2,2,4,Sổ đỏ/ Sổ hồng,"Nội thất bao gồm điều hòa, tủ lạnh, giường",6.0,21.0170550244208,105.950014154708,"Dự án Đặng Xá 1, Đường DX 03, Xã Đặng Xá, Gia Lâm, Hà Nội",Gia Lâm,Hà Nội
Căn hộ chung cư,11.3,115.0,3,2,3,Sổ đỏ/ Sổ hồng,Đầy đủ,,21.0089913903862,105.819668317018,"Hà Thành Plaza, Thái Thịnh, Thịnh Quang, Đống Đa, Hà Nội",Đống Đa,Hà Nội
Căn hộ chung cư,2.6,57.0,1,1,3,Sổ đỏ/ Sổ hồng( sử dụng chung),Cơ bản,,10.7849242209083,106.800692494271,"Dự án Căn hộ Ricca Quận 9, Đường Gò Cát, Phường Phú Hữu, Quận 9, Hồ Chí Minh",Quận 9,Hồ Chí Minh
Căn hộ chung cư,3.3,30.3,1,,3,Sổ đỏ/ Sổ hồng,Đầy đủ,,21.0062385680379,105.736290742824,"Dự án Masteri West Heights, Phường Tây Mỗ, Nam Từ Liêm, Hà Nội",Nam Từ Liêm,Hà Nội
Căn hộ chung cư,10.8,125.6,3,2,3,Sổ đỏ/ Sổ hồng,Đầy đủ,,21.0291768391513,105.794347687498,"Dự án ĐTM Dịch Vọng, Đường Thành Thái, Phường Dịch Vọng, Cầu Giấy, Hà Nội",Cầu Giấy,Hà Nội
Nhà riêng,3.7,23.7,2,1,1,Sổ đỏ/ Sổ hồng,Cơ bản,,21.0181045753979,105.855246161791,"Phố Lò Đúc, Phường Phạm Đình Hổ, Hai Bà Trưng, Hà Nội",Hai Bà Trưng,Hà Nội
Nhà riêng,22.5,115.4,,,5,Sổ hồng,,,10.8135310869871,106.68998707279,"Đường Lê Quang Định, Phường 11, Bình Thạnh, Hồ Chí Minh",Bình Thạnh,Hồ Chí Minh
Nhà riêng,15.0,50.0,12,12,7,Sổ đỏ chính chủ pháp lý chuẩn chỉ,Đầy đủ,,21.0205539642781,105.774351897253,"Đường Đình Thôn, Phường Mỹ Đình 1, Nam Từ Liêm, Hà Nội",Nam Từ Liêm,Hà Nội
Nhà riêng,9.9,122.0,4,2,1,Sổ đỏ/ Sổ hồng,Đầy đủ,,10.8457405026125,106.718272133826,"Đường Quốc Lộ 13, Phường Hiệp Bình Phước, Thủ Đức, Hồ Chí Minh",Thủ Đức,Hồ Chí Minh
Nhà riêng,5.95,33.0,2,2,4,Sổ đỏ/ Sổ hồng,,5.0,10.806188557761,106.681423380857,"Đường Thích Quảng Đức, Phường 4, Phú Nhuận, Hồ Chí Minh",Phú Nhuận,Hồ Chí Minh
Nhà riêng,5.8,36.0,2,3,3,Sổ đỏ/ Sổ hồng,Đầy đủ,4.0,10.7845599202023,106.642228002137,"Đường Âu Cơ, Phường 10, Tân Bình, Hồ Chí Minh",Tân Bình,Hồ Chí Minh
Nhà riêng,5.35,36.0,,,2,Sổ đỏ/ Sổ hồng,Cơ bản,4.0,10.8066787436917,106.611574199225,"Đường DC6, Phường Sơn Kỳ, Tân Phú, Hồ Chí Minh",Tân Phú,Hồ Chí Minh
Nhà riêng,8.4,53.2,4,5,3,Sổ hồng riêng,"Full nội thất cao cấp: Tặng toàn bộ như hình (sofa, giường, tủ bếp, tủ lạnh, máy lạnh)",,10.7695578413898,106.622672573491,"Đường Phan Anh, Phường Hiệp Tân, Tân Phú, Hồ Chí Minh",Tân Phú,Hồ Chí Minh
Nhà riêng,6.35,42.0,5,4,4,Sổ hồng riêng,Đầy đủ,,10.7558900776965,106.701195119278,"Đường Khánh Hội, Phường 4, Quận 4, Hồ Chí Minh",Quận 4,Hồ Chí Minh
Nhà riêng,20.0,85.0,,,3,Sổ đỏ/ Sổ hồng,Đầy đủ,4.5,10.7708661843131,106.686402776762,"Đường Nguyễn Thị Minh Khai, Phường 5, Quận 3, Hồ Chí Minh",Quận 3,Hồ Chí Minh
Nhà riêng,3.85,18.9,2,3,3,Sổ đỏ/ Sổ hồng,,3.1,10.784706414288,106.642006352724,"Đường Âu Cơ, Phường 11, Tân Bình, Hồ Chí Minh",Tân Bình,Hồ Chí Minh
Nhà riêng,5.7,72.9,4,3,3,Sổ đỏ/ Sổ hồng,Cơ bản,4.7,10.8356521459398,106.790221313148,"Đường 160, Phường Tăng Nhơn Phú A, Thủ Đức, Hồ Chí Minh",Thủ Đức,Hồ Chí Minh
Nhà riêng,11.7,72.0,3,3,2,Sổ đỏ/ Sổ hồng,Đầy đủ,4.0,10.8202889234618,106.704289109971,"Đường Nguyễn Xí, Phường 13, Bình Thạnh, Hồ Chí Minh",Bình Thạnh,Hồ Chí Minh
Nhà riêng,15.0,52.0,3,4,4,Sổ đỏ/ Sổ hồng,Đầy đủ,,10.7931816161484,106.687460658303,"Đường Nguyễn Văn Nguyễn, Phường Tân Định, Quận 1, Hồ Chí Minh",Quận 1,Hồ Chí Minh
Nhà riêng,9.5,42.0,2,4,4,Sổ đỏ/ Sổ hồng,Đầy đủ,3.6,21.0058323018179,105.816758886515,"Đường Láng, Phường Thịnh Quang, Đống Đa, Hà Nội",Đống Đa,Hà Nội
Nhà riêng,6.9,62.0,2,2,2,Sổ đỏ/ Sổ hồng,Cơ bản,4.5,10.837265433948,106.790263747056,"Đường 160, Phường Tăng Nhơn Phú A, Quận 9, Hồ Chí Minh",Quận 9,Hồ Chí Minh
Nhà riêng,9.79,53.2,5,6,5,Sổ đỏ/ Sổ hồng,Nội thất cao cấp hàng nhập EU,4.0,10.7998597672513,106.640982404346,"Đường Trường Chinh, Phường 14, Tân Bình, Hồ Chí Minh",Tân Bình,Hồ Chí Minh
Nhà riêng,10.5,49.0,2,2,2,Có sổ,,5.0,10.8078114673906,106.666544541588,"Phường 2, Tân Bình, Hồ Chí Minh",Tân Bình,Hồ Chí Minh
Nhà riêng,10.0,60.0,4,4,5,Sổ đỏ/ Sổ hồng,,,10.7907415059562,106.637436429084,"Đường Lũy Bán Bích, Phường Tân Thành, Tân Phú, Hồ Chí Minh",Tân Phú,Hồ Chí Minh
Nhà riêng,3.0,150.0,3,1,1,Sổ đỏ/ Sổ hồng,Không nội thất,7.5,12.2296676914271,109.108560146947,"Xã Diên Toàn, Diên Khánh, Khánh Hòa",Diên Khánh,Khánh Hòa
Biệt thự,25.0,180.0,3,4,3,Sổ đỏ/ Sổ hồng,Đầy đủ,12.0,12.1978421005045,109.212256715496,"Khu đô thị biển An Viên, Vĩnh Trường, Nha Trang, Khánh Hòa",Nha Trang,Khánh Hòa
Biệt thự,5.2,108.0,,,4,Hợp đồng mua bán,,6.0,10.64101430384539,106.69155308974156,"Dự án T&T Millennia City Long Hậu, Đường Long Hậu, Xã Long Hậu, Cần Giuộc, Long An",Cần Giuộc,Long An
Biệt thự,8.5,200.0,,,3,Hợp đồng mua bán,,10.0,10.6407231403853,106.69172462177332,"Dự án T&T Millennia City Long Hậu, Đường Long Hậu, Xã Long Hậu, Cần Giuộc, Long An",Cần Giuộc,Long An
Biệt thự,5.5,120.0,,,4,Hợp đồng mua bán,,6.0,10.639330767492,106.697492543927,"T&T Millennia City Long Hậu, Long Hậu, Long Hậu, Cần Giuộc, Long An",Cần Giuộc,Long An
Biệt thự,32.0,75.0,,,4,Sổ hồng,,,20.973624483756,105.874795873777,"Dự án Gamuda Gardens, Đường Pháp Vân, Phường Yên Sở, Hoàng Mai, Hà Nội",Hoàng Mai,Hà Nội
Biệt thự,58.0,188.4,,,3,Có sổ,Đủ nội thất,,20.9740277149081,105.874684957599,"Gamuda Gardens, Trần Phú, Hoàng Mai, Hà Nội",Hoàng Mai,Hà Nội
Biệt thự,36.5,116.0,4,4,3,Sổ đỏ/ Sổ hồng,Đầy đủ,,20.9733174340103,105.874465542506,"Dự án Gamuda Gardens, Phường Trần Phú, Hoàng Mai, Hà Nội",Hoàng Mai,Hà Nội
Biệt thự,5.8,120.0,,,4,Hợp đồng mua bán,,6.0,10.640950306144669,106.69199149055768,"Dự án T&T Millennia City Long Hậu, Đường Long Hậu, Xã Long Hậu, Cần Giuộc, Long An",Cần Giuộc,Long An
Biệt thự,5.8,110.0,4,4,3,Sổ đỏ/ Sổ hồng,,5.0,20.9052078175024,106.672410233597,"Dự án Sapphire Gem Hải Phòng, Đường 9C, Phường Thủy Đường, Thủy Nguyên, Hải Phòng",Thủy Nguyên,Hải Phòng
Biệt thự,6.0,106.0,4,4,3,Sổ đỏ/ Sổ hồng,Không nội thất,6.0,20.9055694446051,106.697035162992,"Dự án Belhomes Hải Phòng, Phường An Lư, Thủy Nguyên, Hải Phòng",Thủy Nguyên,Hải Phòng
Biệt thự,12.2,80.0,5,4,5,Hợp đồng mua bán,,5.0,20.94126391833594,105.95710112954364,"Dự án Vinhomes Ocean Park 3, Xã Nghĩa Trụ, Văn Giang, Hưng Yên",Văn Giang,Hưng Yên
Biệt thự,12.5,85.0,6,5,5,HĐMB,Không nội thất,5.0,20.9417844739469,105.957025932204,"Dự án Vinhomes Ocean Park 3, Xã Nghĩa Trụ, Văn Giang, Hưng Yên",Văn Giang,Hưng Yên
Biệt thự,60.5,191.4,,,3,Sổ đỏ/ Sổ hồng,,,20.973144945120723,105.8744312393804,"Dự án Gamuda Gardens, Phường Trần Phú, Hoàng Mai, Hà Nội",Hoàng Mai,Hà Nội
Biệt thự,75.0,192.3,,,4,Sổ đỏ/ Sổ hồng,"+ Nội thất cơ bản đầy đủ với điều hòa, tủ lạnh",8.5,21.03690956529995,105.76030747071648,"Dự án Vinhomes Gardenia, Đường Hàm Nghi, Phường Cầu Diễn, Nam Từ Liêm, Hà Nội",Nam Từ Liêm,Hà Nội
Biệt thự,9.2,85.0,4,5,4,Sổ đỏ/ Sổ hồng,Đầy đủ,5.0,10.6783930277897,106.753586645453,"2581, Đường Huỳnh Tấn Phát, Xã Phú Xuân, Nhà Bè, Hồ Chí Minh",Nhà Bè,Hồ Chí Minh
Biệt thự,52.0,416.0,,,4,Sổ đỏ/ Sổ hồng,,,21.0024065580139,105.70731002135,"Dự án Nam An Khánh, Đường Láng Hòa Lạc, Xã An Khánh, Hoài Đức, Hà Nội",Hoài Đức,Hà Nội
Biệt thự,63.75,255.0,,,4,Sổ đỏ/ Sổ hồng,Không nội thất,12.0,21.014251512007128,105.72480107280796,"Dự án Mailand Hanoi City, Đường Đại lộ Thăng Long, Xã Song Phương, Hoài Đức, Hà Nội",Hoài Đức,Hà Nội
Biệt thự,34.5,190.0,,,3,Sổ đỏ/ Sổ hồng,,,20.974163417162,105.922043854242,"Khu đô thị Ecopark, Trúc, Xuân Quan, Văn Giang, Hưng Yên",Văn Giang,Hưng Yên
Biệt thự,60.0,268.8,5,5,4,Sổ đỏ/ Sổ hồng,Cơ bản,12.78,10.84486980790346,106.71836872189432,"Dự án KĐT Vạn Phúc City, Đường 40, Phường Hiệp Bình Phước, Thủ Đức, Hồ Chí Minh",Thủ Đức,Hồ Chí Minh
Biệt thự,8.5,80.0,4,5,4,Sổ đỏ/ Sổ hồng,Đầy đủ,5.0,10.6781468597606,106.753143055801,"Dự án Green Riverside, Đường Huỳnh Tấn Phát, Xã Phú Xuân, Nhà Bè, Hồ Chí Minh",Nhà Bè,Hồ Chí Minh
Nhà mặt phố,6.8,94.3,4,2,2,Sổ đỏ/ Sổ hồng,,10.0,10.8487844765164,106.631085969411,"Đường Đông Hưng Thuận 27, Phường Đông Hưng Thuận, Quận 12, Hồ Chí Minh",Quận 12,Hồ Chí Minh
